SALE TYPE,SOLD DATE,PROPERTY TYPE,ADDRESS,CITY,STATE OR PROVINCE,ZIP OR POSTAL CODE,PRICE,BEDS,BATHS,LOCATION,SQUARE FEET,LOT SIZE,YEAR BUILT,DAYS ON MARKET,$/SQUARE FEET,HOA/MONTH,STATUS,NEXT OPEN HOUSE START TIME,NEXT OPEN HOUSE END TIME,URL (SEE http://www.redfin.com/buy-a-home/comparative-market-analysis FOR INFO ON PRICING),SOURCE,MLS#,FAVORITE,INTERESTED,LATITUDE,LONGITUDE
PAST SALE,March-29-2021,Single Family Residential,3117 Barksdale Harbor Dr,Nashville,TN,37214,293000,3,2.5,River Trace Estates,1425,10018,2001,,206,10,Sold,,,http://www.redfin.com/TN/Nashville/3117-Barksdale-Harbor-Dr-37214/home/104491788,REALTRACS,2233429,N,Y,36.2380866,-86.6966903
PAST SALE,April-6-2021,Single Family Residential,1221 Pennock Ave,Nashville,TN,37207,300000,3,1.0,Crutcher/Lindsley,1384,8712,1920,,217,,Sold,,,http://www.redfin.com/TN/Nashville/1221-Pennock-Ave-37207/home/108119752,REALTRACS,2233347,N,Y,36.1935063,-86.7656957
PAST SALE,February-11-2021,Single Family Residential,296 Paragon Mills Rd,Nashville,TN,37211,280600,3,2.0,Greenwood Hills,1368,11325,1976,,205,,Sold,,,http://www.redfin.com/TN/Nashville/296-Paragon-Mills-Rd-37211/home/69079364,REALTRACS,2222005,N,Y,36.0876735,-86.7113729
PAST SALE,March-31-2021,Single Family Residential,3128 Richmond Hill Dr,Nashville,TN,37207,243000,3,1.5,Parkwood Estates,1450,11325,1961,,168,,Sold,,,http://www.redfin.com/TN/Nashville/3128-Richmond-Hill-Dr-37207/home/108024616,REALTRACS,2228513,N,Y,36.2358586,-86.7789049
PAST SALE,November-13-2020,Single Family Residential,2005 Ransom Pl,Nashville,TN,37217,243000,3,2.0,Ransom Place,1301,6534,1992,,187,6,Sold,,,http://www.redfin.com/TN/Nashville/2005-Ransom-Pl-37217/home/107976329,REALTRACS,2193929,N,Y,36.0876544,-86.653437
PAST SALE,February-25-2021,Single Family Residential,2804 Mossdale Dr,Nashville,TN,37217,269900,3,2.0,Edge-O-Lake Estates,1491,10018,1970,,181,,Sold,,,http://www.redfin.com/TN/Nashville/2804-Mossdale-Dr-37217/home/107985960,REALTRACS,2223548,N,Y,36.0801108,-86.6241222
PAST SALE,March-23-2021,Single Family Residential,534 Glengarry Dr,Nashville,TN,37217,282000,3,2.0,Glengarry Park,1323,27007,1959,,213,,Sold,,,http://www.redfin.com/TN/Nashville/534-Glengarry-Dr-37217/home/87806193,REALTRACS,2219284,N,Y,36.114182,-86.7102554
PAST SALE,February-12-2021,Single Family Residential,215 Wheeler Ave,Nashville,TN,37211,337900,3,2.0,Glencliff,1372,17859,1953,,246,,Sold,,,http://www.redfin.com/TN/Nashville/215-Wheeler-Ave-37211/home/87806529,REALTRACS,2219017,N,Y,36.0950841,-86.7315588
PAST SALE,February-10-2021,Single Family Residential,3611 Brush Hill Ct,Nashville,TN,37216,357000,3,1.0,Riverwood,1482,21780,1957,,241,,Sold,,,http://www.redfin.com/TN/Nashville/3611-Brush-Hill-Ct-37216/home/108066754,REALTRACS,2207245,N,Y,36.2188196,-86.709764
PAST SALE,April-22-2021,Single Family Residential,1505 Norvel Ave,Nashville,TN,37216,440000,3,2.0,Shadow Lawn,1400,7840,1950,,314,,Sold,,,http://www.redfin.com/TN/Nashville/1505-Norvel-Ave-37216/home/90419639,REALTRACS,2233198,N,Y,36.2139628,-86.7203187
PAST SALE,,Single Family Residential,1712 Welcome Ln,Nashville,TN,37216,412500,3,1.5,,1497,16988,1960,,276,,,,,http://www.redfin.com/TN/Nashville/1712-Welcome-Ln-37216/home/107983572,,,N,Y,36.1956401,-86.7059949
PAST SALE,May-3-2021,Single Family Residential,1600 Lethia Dr,Nashville,TN,37206,379000,3,1.0,Mailan Heights,1400,13503,1954,,271,,Sold,,,http://www.redfin.com/TN/Nashville/1600-Lethia-Dr-37206/home/60703926,REALTRACS,2240276,N,Y,36.1941056,-86.7051444
PAST SALE,,Single Family Residential,2008 19th Ave S,Nashville,TN,37212,775000,2,1.0,,1362,7841,1920,,569,,,,,http://www.redfin.com/TN/Nashville/2008-19th-Ave-S-37212/home/108125539,,,N,Y,36.132312,-86.7982979
PAST SALE,December-21-2020,Single Family Residential,621 N 2nd St,Nashville,TN,37207,410000,3,2.5,McFerrin Park,1380,6534,2007,,297,,Sold,,,http://www.redfin.com/TN/Nashville/621-N-2nd-St-37207/home/68853464,REALTRACS,2210681,N,Y,36.1828082,-86.7711931
PAST SALE,March-1-2021,Single Family Residential,804 Stockell St,Nashville,TN,37207,242500,3,1.0,Cleveland Park,1267,8712,1936,,191,,Sold,,,http://www.redfin.com/TN/Nashville/804-Stockell-St-37207/home/108121931,REALTRACS,2224665,N,Y,36.18451,-86.770046
PAST SALE,,Vacant Land,6015 Obrien Ave,Nashville,TN,37209,620000,2,1.0,,1452,21344,1948,,427,,,,,http://www.redfin.com/TN/Nashville/6015-Obrien-Ave-37209/home/108035076,,,N,Y,36.149409,-86.866654
PAST SALE,,Single Family Residential,1503 Porter Rd Unit B,Nashville,TN,37206,395000,3,2.0,,1327,9148,2009,,298,,,,,http://www.redfin.com/TN/Nashville/1503-Porter-Rd-37206/unit-B/home/108108098,,,N,Y,36.193486,-86.7258605
PAST SALE,December-28-2020,Single Family Residential,908 Riverside Dr,Nashville,TN,37206,311000,3,2.0,Hanley,1338,12632,1948,,232,,Sold,,,http://www.redfin.com/TN/Nashville/908-Riverside-Dr-37206/home/108075445,REALTRACS,2193778,N,Y,36.182756,-86.7257416
PAST SALE,,Single Family Residential,263 Riverside Dr,Nashville,TN,37206,583000,3,2.0,,1325,13939,1958,,440,,,,,http://www.redfin.com/TN/Nashville/263-Riverside-Dr-37206/home/68839260,,,N,Y,36.1755501,-86.726116
PAST SALE,November-20-2020,Single Family Residential,1115 Waggoner Ct W,Nashville,TN,37214,220000,3,2.0,Patio Villa,1270,6969,1986,,173,,Sold,,,http://www.redfin.com/TN/Nashville/1115-Waggoner-Ct-W-37214/home/108036903,REALTRACS,2195362,N,Y,36.146242,-86.641698
PAST SALE,March-19-2021,Single Family Residential,3410 Elm Hill Pike,Nashville,TN,37214,335000,3,2.5,Larchwood,1469,31363,1991,,228,,Sold,,,http://www.redfin.com/TN/Nashville/3410-Elm-Hill-Pike-37214/home/108038765,REALTRACS,2227730,N,Y,36.1428916,-86.6324313
PAST SALE,April-22-2021,Single Family Residential,304 Conifer Pl,Nashville,TN,37214,310000,3,2.0,Larchwood,1266,10890,1980,,245,,Sold,,,http://www.redfin.com/TN/Nashville/304-Conifer-Pl-37214/home/108054221,REALTRACS,2237482,N,Y,36.146242,-86.6295517
PAST SALE,January-29-2021,Single Family Residential,2345 Dennywood Dr,Nashville,TN,37214,325000,4,3.0,Maplecrest,1300,18295,1953,,250,,Sold,,,http://www.redfin.com/TN/Nashville/2345-Dennywood-Dr-37214/home/108005256,REALTRACS,2210310,N,Y,36.1796256,-86.6838628
PAST SALE,November-20-2020,Single Family Residential,409 Woodberry Dr,Nashville,TN,37214,240000,3,1.0,Cloverdale,1286,23086,1955,,187,,Sold,,,http://www.redfin.com/TN/Nashville/409-Woodberry-Dr-37214/home/108053434,REALTRACS,2195050,N,Y,36.1584276,-86.6866222
PAST SALE,April-30-2021,Single Family Residential,2233 Maplecrest Dr,Nashville,TN,37214,299900,3,2.0,Maplecrest,1344,10018,1955,,223,,Sold,,,http://www.redfin.com/TN/Nashville/2233-Maplecrest-Dr-37214/home/108033707,REALTRACS,2219087,N,Y,36.1773661,-86.6911059
PAST SALE,March-18-2021,Single Family Residential,77 Donelson St,Nashville,TN,37210,310000,3,2.0,Hermitage,1456,7405,1920,,213,,Sold,,,http://www.redfin.com/TN/Nashville/77-Donelson-St-37210/home/108078965,REALTRACS,2227247,N,Y,36.1503317,-86.7549348
PAST SALE,January-11-2021,Single Family Residential,410 Annex Ave,Nashville,TN,37209,290000,3,1.5,"Charlotte Park, West",1350,11761,1967,,215,,Sold,,,http://www.redfin.com/TN/Nashville/410-Annex-Ave-37209/home/108079636,REALTRACS,2215086,N,Y,36.1445978,-86.8891584
PAST SALE,April-1-2021,Single Family Residential,434 Wingrove Ave,Nashville,TN,37203,425000,3,2.0,Wedgewood/Houston/Fairgrou,1500,7405,1959,,283,,Sold,,,http://www.redfin.com/TN/Nashville/434-Wingrove-Ave-37203/home/108035319,REALTRACS,2215255,N,Y,36.1359768,-86.7630845
PAST SALE,April-5-2021,Single Family Residential,409 32nd Ave S,Nashville,TN,37212,400000,4,2.0,Nashville,1500,7405,1930,,267,,Sold,,,http://www.redfin.com/TN/Nashville/409-32nd-Ave-S-37212/home/108053224,REALTRACS,2211977,N,Y,36.1385116,-86.813816
PAST SALE,April-19-2021,Single Family Residential,708 Lischey Ave,Nashville,TN,37207,376000,3,2.0,East Nashville Real Estate,1270,6534,1963,,296,,Sold,,,http://www.redfin.com/TN/Nashville/708-Lischey-Ave-37207/home/107995464,REALTRACS,2245751,N,Y,36.1832005,-86.765303
PAST SALE,April-30-2021,Single Family Residential,813 N 6th St,Nashville,TN,37207,439000,3,2.0,J B Haynies Millers,1340,7405,2005,,328,,Sold,,,http://www.redfin.com/TN/Nashville/813-N-6th-St-37207/home/107999278,REALTRACS,2230059,N,Y,36.1849706,-86.7618079
PAST SALE,April-12-2021,Single Family Residential,5511 Knob Rd,Nashville,TN,37209,525000,3,2.0,Brookside Court,1444,15245,1949,,364,,Sold,,,http://www.redfin.com/TN/Nashville/5511-Knob-Rd-37209/home/102801915,REALTRACS,2234612,N,Y,36.1388454,-86.8533169
PAST SALE,,Single Family Residential,923 Sutton Hill Rd,Nashville,TN,37204,550000,3,2.0,,1372,14810,1945,,401,,,,,http://www.redfin.com/TN/Nashville/923-Sutton-Hill-Rd-37204/home/87829599,,,N,Y,36.1136109,-86.7831674
PAST SALE,,Single Family Residential,917 Woodmont Blvd,Nashville,TN,37204,525000,3,2.0,,1460,13068,1945,,360,,,,,http://www.redfin.com/TN/Nashville/917-Woodmont-Blvd-37204/home/105642799,,,N,Y,36.1101962,-86.7839541
PAST SALE,December-4-2020,Single Family Residential,928 Beech Bend Dr,Nashville,TN,37221,338000,3,2.0,Harpeth Valley + Greenway!,1320,20473,1979,,256,,Sold,,,http://www.redfin.com/TN/Nashville/928-Beech-Bend-Dr-37221/home/60853858,REALTRACS,2211441,N,Y,36.0553532,-86.9418812
PAST SALE,February-19-2021,Single Family Residential,412 Grapevine Ave,Madison,TN,37115,308000,3,2.0,Montague,1350,6969,1979,,228,,Sold,,,http://www.redfin.com/TN/Madison/412-Grapevine-Ave-37115/home/60735666,REALTRACS,2220066,N,Y,36.2445162,-86.7119066
PAST SALE,February-18-2021,Single Family Residential,2610 Paddle Wheel Dr,Nashville,TN,37214,268800,3,2.5,River Trace Estates,1398,7405,1987,,192,,Sold,,,http://www.redfin.com/TN/Nashville/2610-Paddle-Wheel-Dr-37214/unit-3B/home/87818994,REALTRACS,2213781,N,Y,36.2343238,-86.6984206
PAST SALE,December-31-2020,Single Family Residential,316 Madison Blvd,Madison,TN,37115,312000,3,2.0,Power & Roth Madison Park,1357,8276,1935,,230,,Sold,,,http://www.redfin.com/TN/Madison/316-Madison-Blvd-37115/home/107994744,REALTRACS,2211420,N,Y,36.2522256,-86.7089974
PAST SALE,April-15-2021,Single Family Residential,523 Fedders Dr,Madison,TN,37115,255000,4,2.0,Madison Park,1430,9583,1966,,178,,Sold,,,http://www.redfin.com/TN/Madison/523-Fedders-Dr-37115/home/108119777,REALTRACS,2231401,N,Y,36.2722096,-86.6992267
PAST SALE,April-9-2021,Single Family Residential,1314 Newman Ave,Nashville,TN,37216,295000,3,1.0,Inglewood Place,1308,11761,1935,,226,,Sold,,,http://www.redfin.com/TN/Nashville/1314-Newman-Ave-37216/home/107996663,REALTRACS,2225552,N,Y,36.2151557,-86.7252317
PAST SALE,April-9-2021,Single Family Residential,1212 Stratford Ave,Nashville,TN,37216,450000,2,2.0,Inglewood Place,1490,10454,1938,,302,,Sold,,,http://www.redfin.com/TN/Nashville/1212-Stratford-Ave-37216/home/68814105,REALTRACS,2234846,N,Y,36.2137468,-86.7263714
PAST SALE,,Single Family Residential,501 Cleveland St,Nashville,TN,37207,290000,3,1.0,,1258,7841,1963,,231,,,,,http://www.redfin.com/TN/Nashville/501-Cleveland-St-37207/home/60688356,,,N,Y,36.1863094,-86.7627504
PAST SALE,March-1-2021,Single Family Residential,816 Clematis Dr,Nashville,TN,37205,450000,2,1.5,Brook Meade,1469,39639,1959,,306,,Sold,,,http://www.redfin.com/TN/Nashville/816-Clematis-Dr-37205/home/60700818,REALTRACS,2231956,N,Y,36.1262408,-86.8942806
PAST SALE,November-17-2020,Single Family Residential,819 Watts Ln,Nashville,TN,37209,450000,0,,Nashville,1456,23958,1961,,309,,Sold,,,http://www.redfin.com/TN/Nashville/819-Watts-Ln-37209/home/108008173,REALTRACS,2207618,N,Y,36.1430388,-86.8703627
PAST SALE,,Single Family Residential,708 Vanoke Dr,Madison,TN,37115,275000,3,1.5,,1491,44867,1961,,184,,,,,http://www.redfin.com/TN/Madison/708-Vanoke-Dr-37115/home/87831562,,,N,Y,36.2622242,-86.7467504
PAST SALE,January-29-2021,Single Family Residential,3178 Robwood Dr,Nashville,TN,37207,252500,4,2.5,Parkwood Estates,1440,13939,1962,,175,,Sold,,,http://www.redfin.com/TN/Nashville/3178-Robwood-Dr-37207/home/108071960,REALTRACS,2214891,N,Y,36.2358101,-86.7686015
PAST SALE,January-27-2021,Single Family Residential,920 Due West Ave N,Madison,TN,37115,239000,3,1.0,Due West Valley Acres,1485,53143,1955,,161,,Sold,,,http://www.redfin.com/TN/Madison/920-W-Due-Ave-N-37115/home/87818230,REALTRACS,2211683,N,Y,36.255606,-86.7490106
PAST SALE,,Single Family Residential,1409 Navaho Ct,Nashville,TN,37207,98834,3,1.5,,1486,16117,1988,,67,,,,,http://www.redfin.com/TN/Nashville/1409-Navaho-Ct-37207/home/108121532,,,N,Y,36.2558628,-86.7641445
PAST SALE,April-12-2021,Single Family Residential,5318 Buena Vista Pike,Nashville,TN,37218,325000,3,2.0,Nashville,1405,60548,1966,,231,,Sold,,,http://www.redfin.com/TN/Nashville/5318-Buena-Vista-Pike-37218/home/107998735,REALTRACS,2236263,N,Y,36.2446792,-86.8280938
PAST SALE,April-7-2021,Single Family Residential,813 E Campbell Rd,Madison,TN,37115,310000,3,1.5,Green Forest,1350,37897,1966,,230,,Sold,,,http://www.redfin.com/TN/Madison/813-E-Campbell-Rd-37115/home/60874889,REALTRACS,2233059,N,Y,36.281311,-86.72916
PAST SALE,May-6-2021,Single Family Residential,3445 Brick Church Pike,Nashville,TN,37207,165000,3,1.0,3445 Brick Church Pike,1345,39204,1920,,123,,Sold,,,http://www.redfin.com/TN/Nashville/3445-Brick-Church-Pike-37207/home/108077402,REALTRACS,2209636,N,Y,36.2489349,-86.7722217
PAST SALE,January-15-2021,Single Family Residential,2918 Wingate Ave,Nashville,TN,37211,238600,3,1.5,Tuggle Heights,1329,9147,1942,,180,,Sold,,,http://www.redfin.com/TN/Nashville/2918-Wingate-Ave-37211/home/87822394,REALTRACS,2208599,N,Y,36.1081831,-86.7344702
PAST SALE,February-26-2021,Single Family Residential,3115 Southlake Dr,Nashville,TN,37211,354900,2,2.0,Southlake,1359,14810,1954,,261,,Sold,,,http://www.redfin.com/TN/Nashville/3115-Southlake-Dr-37211/home/108090123,REALTRACS,2220213,N,Y,36.1055822,-86.7292403
PAST SALE,December-17-2020,Single Family Residential,3208 Bray Dr,Nashville,TN,37218,325000,3,2.0,Haynes Estates,1476,21780,1970,,220,,Sold,,,http://www.redfin.com/TN/Nashville/3208-Bray-Dr-37218/home/108109057,REALTRACS,2201349,N,Y,36.2214685,-86.8295274
PAST SALE,January-25-2021,Single Family Residential,3813 Boatner Dr,Nashville,TN,37207,167000,3,1.0,Haynes Manor,1250,10454,1965,,134,,Sold,,,http://www.redfin.com/TN/Nashville/3813-Boatner-Dr-37207/home/107989645,REALTRACS,2215565,N,Y,36.2161618,-86.8177781
PAST SALE,March-25-2021,Single Family Residential,734 Rowan Dr,Nashville,TN,37207,285000,3,2.0,Haynes Manor,1430,9147,1968,,199,,Sold,,,http://www.redfin.com/TN/Nashville/734-Rowan-Dr-37207/home/108121563,REALTRACS,2227274,N,Y,36.2198697,-86.8154637
PAST SALE,February-26-2021,Single Family Residential,1430 E Cedar Ln,Madison,TN,37115,229900,3,2.0,Neelys Bend Villas,1297,7405,1979,,177,150,Sold,,,http://www.redfin.com/TN/Madison/1430-E-Cedar-Ln-37115/home/107992167,REALTRACS,2219126,N,Y,36.241912,-86.67086
PAST SALE,March-1-2021,Single Family Residential,212 Ryburn Dr,Old Hickory,TN,37138,300000,3,1.5,Fairway View,1438,15681,1974,,209,,Sold,,,http://www.redfin.com/TN/Old-Hickory/212-Ryburn-Dr-37138/home/104306814,REALTRACS,2222287,N,Y,36.254118,-86.654989
PAST SALE,April-19-2021,Single Family Residential,103 Rifle Range Rd,Old Hickory,TN,37138,299900,3,1.5,Old Hickory,1399,15681,1962,,214,,Sold,,,http://www.redfin.com/TN/Old-Hickory/103-Rifle-Range-Rd-37138/home/87818453,REALTRACS,2235716,N,Y,36.2390856,-86.6373727
PAST SALE,May-4-2021,Single Family Residential,1416 Mohawk Trl,Madison,TN,37115,264500,3,2.0,Nawakwa Hills Powwow,1334,7405,1988,,198,,Sold,,,http://www.redfin.com/TN/Madison/1416-Mohawk-Trl-37115/home/107987743,REALTRACS,2242508,N,Y,36.2363322,-86.6577829
PAST SALE,,Single Family Residential,208 Jacksonian Dr,Hermitage,TN,37076,170000,3,1.0,,1422,10890,1961,,120,,,,,http://www.redfin.com/TN/Hermitage/208-Jacksonian-Dr-37076/home/108074200,,,N,Y,36.199398,-86.6317619
PAST SALE,December-15-2020,Single Family Residential,4406 Old Hickory Blvd,Old Hickory,TN,37138,215000,3,2.5,Berryville,1260,14810,1940,,171,,Sold,,,http://www.redfin.com/TN/Old-Hickory/4406-Old-Hickory-Blvd-37138/home/108051140,REALTRACS,2199822,N,Y,36.2148933,-86.6225075
PAST SALE,March-22-2021,Single Family Residential,441 Harwell Dr,Hermitage,TN,37076,259900,2,2.5,Hermitage Estates,1250,14810,1968,,208,,Sold,,,http://www.redfin.com/TN/Hermitage/441-Harwell-Dr-37076/home/68766438,REALTRACS,2228444,N,Y,36.1953085,-86.6126639
PAST SALE,,Single Family Residential,621 Netherlands Dr,Hermitage,TN,37076,160000,3,2.0,,1312,13939,1976,,122,,,,,http://www.redfin.com/TN/Hermitage/621-Netherlands-Dr-37076/home/108108696,,,N,Y,36.2035714,-86.6009992
PAST SALE,,Single Family Residential,308 Scotts Creek Pl,Hermitage,TN,37076,215000,3,2.0,,1458,7405,1990,,147,,,,,http://www.redfin.com/TN/Hermitage/308-Scotts-Creek-Pl-37076/home/107979657,,,N,Y,36.2038709,-86.5936307
PAST SALE,March-5-2021,Single Family Residential,4813 Cascade Dr,Old Hickory,TN,37138,255000,3,1.5,Sherwood Forest,1408,14810,1974,,181,,Sold,,,http://www.redfin.com/TN/Old-Hickory/4813-Cascade-Dr-37138/home/108119749,REALTRACS,2223942,N,Y,36.2253265,-86.5916209
PAST SALE,March-23-2021,Single Family Residential,604 Dutchmans Dr,Hermitage,TN,37076,295000,3,2.0,Highlands Of Tulip Grove,1250,12632,1974,,236,,Sold,,,http://www.redfin.com/TN/Hermitage/604-Dutchmans-Dr-37076/home/87814968,REALTRACS,2216297,N,Y,36.2054439,-86.6013144
PAST SALE,April-1-2021,Single Family Residential,2504 Winter Springs Ct,Hermitage,TN,37076,290000,3,2.0,Truxton Park,1374,6534,2002,,211,21,Sold,,,http://www.redfin.com/TN/Hermitage/2504-Winter-Springs-Ct-37076/home/108102495,REALTRACS,2237074,N,Y,36.222018,-86.5941579
PAST SALE,April-26-2021,Single Family Residential,509 Hidden Hill Dr,Hermitage,TN,37076,199900,3,2.0,Tulip Grove Woods,1327,11325,1985,,151,,Sold,,,http://www.redfin.com/TN/Hermitage/509-Hidden-Hill-Dr-37076/home/60642849,REALTRACS,2238677,N,Y,36.2102931,-86.5871281
PAST SALE,April-30-2021,Single Family Residential,641 Mercer Dr,Hermitage,TN,37076,290000,3,2.0,Highlands Of Tulip Grove,1340,14810,1976,,216,,Sold,,,http://www.redfin.com/TN/Hermitage/641-Mercer-Dr-37076/home/107983752,REALTRACS,2237197,N,Y,36.2019441,-86.601866
PAST SALE,April-15-2021,Single Family Residential,4727 Trenton Dr,Hermitage,TN,37076,275000,3,1.5,Tulip Grove,1450,10890,1974,,190,,Sold,,,http://www.redfin.com/TN/Hermitage/4727-Trenton-Dr-37076/home/104374575,REALTRACS,2224853,N,Y,36.2131314,-86.5946158
PAST SALE,February-12-2021,Single Family Residential,3594 Binkley Rd,Joelton,TN,37080,282500,3,2.0,Carlos Ford,1400,59241,1999,,202,,Sold,,,http://www.redfin.com/TN/Joelton/3594-Binkley-Rd-37080/home/107994288,REALTRACS,2217261,N,Y,36.3257183,-86.8865007
PAST SALE,,Single Family Residential,1604 Ashton Ave,Nashville,TN,37218,135000,3,1.0,,1330,15682,1958,,102,,,,,http://www.redfin.com/TN/Nashville/1604-Ashton-Ave-37218/home/108032769,,,N,Y,36.1910206,-86.8426418
PAST SALE,,Single Family Residential,8152 Jackman Rd,Joelton,TN,37080,250000,3,2.0,,1324,74923,1962,,189,,,,,http://www.redfin.com/TN/Joelton/8152-Jackman-Rd-37080/home/60686634,,,N,Y,36.3634688,-86.8698048
PAST SALE,,Condo/Co-op,2168 Rock City St Unit A,Nashville,TN,37216,442000,3,3.0,,1906,,2020,,232,,,,,http://www.redfin.com/TN/Nashville/2168-Rock-City-St-37216/unit-A/home/108119880,,,N,Y,36.200059,-86.728136
PAST SALE,,Multi-Family (2-4 Unit),1425 Otay St,Nashville,TN,37216,260000,4,2.0,,1299,10890,1972,,200,,,,,http://www.redfin.com/TN/Nashville/1425-Otay-St-37216/home/108113552,,,N,Y,36.199036,-86.7305669
PAST SALE,January-2-2021,Single Family Residential,913 Carolyn Ave,Nashville,TN,37216,385000,3,1.0,East Hill,1336,21780,1936,,288,,Sold,,,http://www.redfin.com/TN/Nashville/913-Carolyn-Ave-37216/home/96851461,REALTRACS,2207997,N,Y,36.1989711,-86.7470244
PAST SALE,,Single Family Residential,842 Seymour Ave,Nashville,TN,37206,180000,3,1.5,,1404,9583,1946,,128,,,,,http://www.redfin.com/TN/Nashville/842-Seymour-Ave-37206/home/108047587,,,N,Y,36.1861753,-86.7554257
PAST SALE,March-5-2021,Single Family Residential,2109 Riverside Dr,Nashville,TN,37216,370000,3,2.0,East Nashville,1350,7840,1943,,274,,Sold,,,http://www.redfin.com/TN/Nashville/2109-Riverside-Dr-37216/home/108120231,REALTRACS,2222433,N,Y,36.2014836,-86.7224412
PAST SALE,,Multi-Family (2-4 Unit),2208 Carter Ave Unit B,Nashville,TN,37206,380000,4,2.0,,1500,14810,1959,,253,,,,,http://www.redfin.com/TN/Nashville/2208-Carter-Ave-37206/unit-B/home/87804373,,,N,Y,36.1888305,-86.7252513
PAST SALE,March-16-2021,Single Family Residential,443 Gates Rd,Goodlettsville,TN,37072,212000,4,1.0,Gatewood,1270,17859,1966,,167,,Sold,,,http://www.redfin.com/TN/Goodlettsville/443-Gates-Rd-37072/home/108031666,REALTRACS,2218015,N,Y,36.2904812,-86.7166632
PAST SALE,March-5-2021,Single Family Residential,2928 Primrose Cir,Nashville,TN,37212,549999,3,2.0,Belmont-Hillsboro,1350,10018,1940,,407,,Sold,,,http://www.redfin.com/TN/Nashville/2928-Primrose-Cir-37212/home/60807450,REALTRACS,2222214,N,Y,36.1193936,-86.8012214
PAST SALE,March-22-2021,Single Family Residential,516 Waycross Dr,Nashville,TN,37211,320000,4,2.0,Russwurm Heights,1348,20037,1950,,237,,Sold,,,http://www.redfin.com/TN/Nashville/516-Waycross-Dr-37211/home/108113721,REALTRACS,2224426,N,Y,36.1265125,-86.7614544
PAST SALE,,Single Family Residential,6705 Greeley Dr,Nashville,TN,37205,490000,2,1.5,,1456,51836,1955,,337,,,,,http://www.redfin.com/TN/Nashville/6705-Greeley-Dr-37205/home/87821188,,,N,Y,36.1329604,-86.8801878
PAST SALE,February-17-2021,Single Family Residential,809 Bresslyn Rd,Nashville,TN,37205,400000,3,2.0,Brook Meade,1484,62290,1955,,270,,Sold,,,http://www.redfin.com/TN/Nashville/809-Bresslyn-Rd-37205/home/108004529,REALTRACS,2191595,N,Y,36.1218156,-86.8881718
PAST SALE,February-11-2021,Single Family Residential,302 Edgeview Dr,Nashville,TN,37211,350000,3,1.5,Caldwell Hall,1500,16117,1961,,233,,Sold,,,http://www.redfin.com/TN/Nashville/302-Edgeview-Dr-37211/home/108133392,REALTRACS,2228031,N,Y,36.076697,-86.7465286
PAST SALE,March-4-2021,Single Family Residential,565 Elysian Fields Rd,Nashville,TN,37211,359000,2,1.5,Caldwell Hall,1325,15245,1962,,271,,Sold,,,http://www.redfin.com/TN/Nashville/565-Elysian-Fields-Rd-37211/home/60746967,REALTRACS,2220881,N,Y,36.0844811,-86.7488463
PAST SALE,November-30-2020,Single Family Residential,4716 Danby Dr,Nashville,TN,37211,389900,2,2.0,Abbay Hall,1380,21344,1955,,283,,Sold,,,http://www.redfin.com/TN/Nashville/4716-Danby-Dr-37211/home/87813767,REALTRACS,2202447,N,Y,36.0828274,-86.7441714
PAST SALE,November-22-2020,Single Family Residential,237 Cumberland Cir,Nashville,TN,37214,289900,3,1.0,Bluefields,1428,18730,1952,,203,,Sold,,,http://www.redfin.com/TN/Nashville/237-Cumberland-Cir-37214/home/102878811,REALTRACS,2196441,N,Y,36.1623746,-86.6697088
PAST SALE,March-17-2021,Single Family Residential,2626 Emery Dr,Nashville,TN,37214,326000,3,1.0,Meadowview Acres,1330,15245,1953,,245,,Sold,,,http://www.redfin.com/TN/Nashville/2626-Emery-Dr-37214/home/108005334,REALTRACS,2222369,N,Y,36.1571081,-86.6726178
PAST SALE,December-7-2020,Single Family Residential,2410 9th Ave S,Nashville,TN,37204,615000,3,1.0,Edgar C Allen,1278,14810,1940,,481,,Sold,,,http://www.redfin.com/TN/Nashville/2410-9th-Ave-S-37204/home/108061416,REALTRACS,2212028,N,Y,36.1246818,-86.7832851
PAST SALE,,Single Family Residential,617 Hicks Rd,Nashville,TN,37221,390000,3,1.5,,1365,12632,1969,,286,,,,,http://www.redfin.com/TN/Nashville/617-Hicks-Rd-37221/home/108089388,,,N,Y,36.0875782,-86.937939
PAST SALE,February-1-2021,Vacant Land,4033 Russellwood Dr,Nashville,TN,37204,655000,,,Rolling Meadows,,19602,,,,,Sold,,,http://www.redfin.com/TN/Nashville/4033-Russellwood-Dr-37204/home/60793611,REALTRACS,2224952,N,Y,36.1013429,-86.7855324
PAST SALE,January-16-2021,Condo/Co-op,5002 Regent Dr,Nashville,TN,37220,360000,3,2.0,Crieve Hall,1393,26136,2004,,258,,Sold,,,http://www.redfin.com/TN/Nashville/5002-Regent-Dr-37220/home/87808129,REALTRACS,2204633,N,Y,36.07311,-86.765921
PAST SALE,March-3-2021,Single Family Residential,4836 Aster Dr,Nashville,TN,37211,337000,3,2.0,Highview Acres,1459,10890,1959,,231,,Sold,,,http://www.redfin.com/TN/Nashville/4836-Aster-Dr-37211/home/108130165,REALTRACS,2210201,N,Y,36.0869311,-86.7187858
PAST SALE,December-1-2020,Single Family Residential,716 Dover Rd,Nashville,TN,37211,307000,3,2.0,Battlewood,1303,19166,1953,,236,,Sold,,,http://www.redfin.com/TN/Nashville/716-Dover-Rd-37211/home/108025879,REALTRACS,2196966,N,Y,36.1121832,-86.7178031
PAST SALE,,Single Family Residential,3205 Glencliff Rd,Nashville,TN,37211,260000,5,2.0,,1495,22651,1943,,174,,,,,http://www.redfin.com/TN/Nashville/3205-Glencliff-Rd-37211/home/108038483,,,N,Y,36.1034203,-86.7214979
PAST SALE,November-17-2020,Single Family Residential,5114 Hunters Point Ln,Hermitage,TN,37076,190000,2,1.5,Hunters Point,1374,7405,1984,,138,,Sold,,,http://www.redfin.com/TN/Hermitage/5114-Hunters-Point-Ln-37076/home/104012580,REALTRACS,2192018,N,Y,36.1622038,-86.5838962
PAST SALE,April-7-2021,Single Family Residential,500 Whispering Hills Dr,Nashville,TN,37211,363000,3,1.0,Whispering Hills,1293,19602,1961,,281,,Sold,,,http://www.redfin.com/TN/Nashville/500-Whispering-Hills-Dr-37211/home/60849021,REALTRACS,2233339,N,Y,36.0615407,-86.7212227
PAST SALE,May-7-2021,Single Family Residential,3535 Trimble Rd,Nashville,TN,37215,595000,3,1.5,Green Hills,1390,23522,1956,,428,,Sold,,,http://www.redfin.com/TN/Nashville/3535-Trimble-Rd-37215/home/90648100,REALTRACS,2218584,N,Y,36.0943174,-86.8312704
PAST SALE,April-28-2021,Single Family Residential,4019 Shufeld Ct,Antioch,TN,37013,255000,4,2.0,Colewood Acres,1468,8712,1985,,174,,Sold,,,http://www.redfin.com/TN/Antioch/4019-Shufeld-Ct-37013/home/108009939,REALTRACS,2232641,N,Y,36.060311,-86.693508
PAST SALE,,Single Family Residential,214 Wheeler Ave,Nashville,TN,37211,225000,2,1.0,,1299,20909,1955,,173,,,,,http://www.redfin.com/TN/Nashville/214-Wheeler-Ave-37211/home/108070046,,,N,Y,36.095627,-86.7312445
PAST SALE,,Single Family Residential,5013 Churchill Dr,Nashville,TN,37211,325000,3,1.0,,1424,23958,1957,,228,,,,,http://www.redfin.com/TN/Nashville/5013-Churchill-Dr-37211/home/107981385,,,N,Y,36.0689543,-86.7512621
PAST SALE,November-13-2020,Single Family Residential,3520 Hewlett Dr,Nashville,TN,37211,275000,3,2.0,Parma Heights,1311,12632,1956,,210,,Sold,,,http://www.redfin.com/TN/Nashville/3520-Hewlett-Dr-37211/home/60854889,REALTRACS,2195266,N,Y,36.0966489,-86.7298298
PAST SALE,February-22-2021,Single Family Residential,554 Watsonwood Dr,Nashville,TN,37211,379900,3,1.0,Whispering Hills,1408,16988,1957,,270,,Sold,,,http://www.redfin.com/TN/Nashville/554-Watsonwood-Dr-37211/home/87807040,REALTRACS,2217893,N,Y,36.0633661,-86.7290438
PAST SALE,March-16-2021,Single Family Residential,5012 Churchill Dr,Nashville,TN,37211,339500,3,1.0,Crievewood,1381,15681,1957,,246,,Sold,,,http://www.redfin.com/TN/Nashville/5012-Churchill-Dr-37211/home/108100861,REALTRACS,2233345,N,Y,36.0691203,-86.750339
PAST SALE,,Single Family Residential,659 Devon Dr,Nashville,TN,37220,400000,3,1.5,,1302,24829,1960,,307,,,,,http://www.redfin.com/TN/Nashville/659-Devon-Dr-37220/home/60834492,,,N,Y,36.0608859,-86.7675806
PAST SALE,March-5-2021,Single Family Residential,505 Highcrest Dr,Nashville,TN,37211,435000,3,2.0,Crieve/Whispering Hills,1478,16988,1961,,294,,Sold,,,http://www.redfin.com/TN/Nashville/505-Highcrest-Dr-37211/home/108088017,REALTRACS,2222581,N,Y,36.0606036,-86.7242098
PAST SALE,March-19-2021,Single Family Residential,549 Elaine Dr,Nashville,TN,37211,340000,3,2.0,Crieve/Abbay Hall,1463,13939,1957,,232,,Sold,,,http://www.redfin.com/TN/Nashville/549-Elaine-Dr-37211/home/107986488,REALTRACS,2222659,N,Y,36.0820692,-86.7459393
PAST SALE,April-22-2021,Single Family Residential,3348 Mimosa Dr,Nashville,TN,37211,352366,3,1.0,Glencoe Acres,1431,23086,1955,,246,,Sold,,,http://www.redfin.com/TN/Nashville/3348-Mimosa-Dr-37211/home/87823036,REALTRACS,2236026,N,Y,36.0962093,-86.7230307
PAST SALE,April-23-2021,Single Family Residential,4860 Cimarron Way,Antioch,TN,37013,213000,3,1.0,Apache Hills,1262,14810,1971,,169,,Sold,,,http://www.redfin.com/TN/Antioch/4860-Cimarron-Way-37013/home/108056674,REALTRACS,2244569,N,Y,36.0601986,-86.6861895
PAST SALE,April-19-2021,Single Family Residential,308 Rocky Top Ct,Antioch,TN,37013,250000,2,2.0,Hickory Woods Estates,1292,8276,1997,,193,25,Sold,,,http://www.redfin.com/TN/Antioch/308-Rocky-Top-Ct-37013/home/61628548,REALTRACS,2233918,N,Y,36.0325145,-86.5819172
PAST SALE,February-22-2021,Single Family Residential,356 Melpar Dr,Nashville,TN,37211,279000,3,1.0,Fairlane Park,1275,20037,1958,,219,,Sold,,,http://www.redfin.com/TN/Nashville/356-Melpar-Dr-37211/home/87827922,REALTRACS,2218247,N,Y,36.0651869,-86.7086829
PAST SALE,February-25-2021,Single Family Residential,3704 Hillbrook Dr,Nashville,TN,37211,266000,3,2.0,Hillbrook,1400,15245,1962,,190,,Sold,,,http://www.redfin.com/TN/Nashville/3704-Hillbrook-Dr-37211/home/60735547,REALTRACS,2197641,N,Y,36.0786055,-86.7044367
PAST SALE,December-2-2020,Single Family Residential,5131 Colemont Dr,Antioch,TN,37013,312900,3,1.5,Tusculum Gardens,1456,12196,1973,,215,,Sold,,,http://www.redfin.com/TN/Antioch/5131-Colemont-Dr-37013/home/108016670,REALTRACS,2204187,N,Y,36.054737,-86.700544
PAST SALE,March-2-2021,Single Family Residential,109 Kendall Park Dr,Nashville,TN,37217,255000,3,2.0,Kendall Park,1338,9147,2002,,191,17,Sold,,,http://www.redfin.com/TN/Nashville/109-Kendall-Park-Dr-37217/home/68816137,REALTRACS,2221591,N,Y,36.0823371,-86.6452828
PAST SALE,April-12-2021,Single Family Residential,2325 Rader Ridge Rd,Antioch,TN,37013,205900,2,2.0,Pebble Trace,1470,12632,1987,,140,,Sold,,,http://www.redfin.com/TN/Antioch/2325-Rader-Ridge-Rd-37013/home/106114675,REALTRACS,2233875,N,Y,36.0717661,-86.662584
PAST SALE,February-22-2021,Condo/Co-op,2343 Fairchild Cir #203,Nolensville,TN,37135,278625,2,2.0,Carothers Farms,1280,15681,2020,,218,155,Sold,,,http://www.redfin.com/TN/Nolensville/2343-Fairchild-CIR-37135/unit-203/home/173427280,REALTRACS,2198229,N,Y,35.98574472,-86.62197036
PAST SALE,January-7-2021,Single Family Residential,4948 Darlington Dr,Nashville,TN,37211,360000,3,1.5,Crieve Hall  Caldwell Well,1275,42253,1960,,282,,Sold,,,http://www.redfin.com/TN/Nashville/4948-Darlington-Dr-37211/home/108091391,REALTRACS,2205820,N,Y,36.0711873,-86.7420499
PAST SALE,November-12-2020,Single Family Residential,331 Binkley Dr,Nashville,TN,37211,395000,4,2.5,Caldwell Hall,1500,15681,1961,,263,,Sold,,,http://www.redfin.com/TN/Nashville/331-Binkley-Dr-37211/home/87816811,REALTRACS,2193187,N,Y,36.0797959,-86.7418928
PAST SALE,November-24-2020,Single Family Residential,5473 Village Way,Nashville,TN,37211,305000,3,2.0,Villages Of Brentwood,1327,7405,1984,,230,2,Sold,,,http://www.redfin.com/TN/Nashville/5473-Village-Way-37211/home/108093285,REALTRACS,2202087,N,Y,36.0487087,-86.7390379
PAST SALE,February-23-2021,Single Family Residential,557 Elysian Fields Rd,Nashville,TN,37211,385000,3,1.5,Abbay Hall,1435,13939,1962,,268,,Sold,,,http://www.redfin.com/TN/Nashville/557-Elysian-Fields-Rd-37211/home/107975875,REALTRACS,2219422,N,Y,36.0844577,-86.7479821
PAST SALE,March-5-2021,Single Family Residential,5101 Whitaker Dr,Nashville,TN,37211,240000,3,2.0,Huntingdon Park,1374,10454,1974,,175,,Sold,,,http://www.redfin.com/TN/Nashville/5101-Whitaker-Dr-37211/home/108056557,REALTRACS,2224188,N,Y,36.0538118,-86.7397715
PAST SALE,January-4-2021,Single Family Residential,429 Bellingrath Dr,Nashville,TN,37211,410000,3,2.0,Elysian Park,1422,31798,1962,,288,,Sold,,,http://www.redfin.com/TN/Nashville/429-Bellingrath-Dr-37211/home/60868669,REALTRACS,2210496,N,Y,36.0806807,-86.7354098
PAST SALE,April-14-2021,Single Family Residential,620 Whispering Hills Dr,Nashville,TN,37211,330000,3,1.5,Parkview Estates,1450,19602,1960,,228,,Sold,,,http://www.redfin.com/TN/Nashville/620-Whispering-Hills-Dr-37211/home/107973778,REALTRACS,2222034,N,Y,36.0711686,-86.7304192
PAST SALE,,Single Family Residential,1025 Shire Dr,Antioch,TN,37013,250000,3,2.0,,1274,7405,2007,,196,,,,,http://www.redfin.com/TN/Antioch/1025-Shire-Dr-37013/home/107980989,,,N,Y,36.0338223,-86.6696174
PAST SALE,March-3-2021,Single Family Residential,413 Shoreline Cir,Antioch,TN,37013,205000,3,2.0,South Shore,1422,6969,2014,,144,35,Sold,,,http://www.redfin.com/TN/Antioch/413-Shoreline-Cir-37013/home/87801492,REALTRACS,2218121,N,Y,36.053904,-86.5855516
PAST SALE,,Single Family Residential,889 Pin Oak Dr,Antioch,TN,37013,265000,3,2.0,,1470,7841,2018,,180,,,,,http://www.redfin.com/TN/Antioch/889-Pin-Oak-Dr-37013/home/87808122,,,N,Y,36.0510971,-86.5897499
PAST SALE,January-5-2021,Single Family Residential,2705 Campa Cir,Nashville,TN,37211,352000,3,2.0,Holt Woods,1448,12196,1998,,243,11,Sold,,,http://www.redfin.com/TN/Nashville/2705-Campa-Cir-37211/home/108028701,REALTRACS,2211200,N,Y,36.0193385,-86.730989
PAST SALE,April-16-2021,Single Family Residential,5971 Lickton Pike,Goodlettsville,TN,37072,334900,3,2.0,Lickton,1500,26571,1950,,223,,Sold,,,http://www.redfin.com/TN/Goodlettsville/5971-Lickton-Pike-37072/home/107973326,REALTRACS,2231563,N,Y,36.3413339,-86.768523
PAST SALE,,Single Family Residential,1429 Electric Ave,Nashville,TN,37206,400000,3,2.0,,1350,6534,1950,,296,,,,,http://www.redfin.com/TN/Nashville/1429-Electric-Ave-37206/home/108125046,,,N,Y,36.1666282,-86.7447607
PAST SALE,November-30-2020,Single Family Residential,721 S 13th St,Nashville,TN,37206,405000,3,2.5,Payne Blakemore & Cummings,1446,7840,2007,,280,,Sold,,,http://www.redfin.com/TN/Nashville/721-S-13th-St-37206/home/87813449,REALTRACS,2202695,N,Y,36.1660915,-86.7484142
PAST SALE,March-19-2021,Single Family Residential,1621 Eastside Ave,Nashville,TN,37206,500000,3,2.0,Edgefield Land,1264,7405,1925,,396,,Sold,,,http://www.redfin.com/TN/Nashville/1621-Eastside-Ave-37206/home/68863262,REALTRACS,2228745,N,Y,36.1684796,-86.7411463
PAST SALE,November-27-2020,Single Family Residential,905 Cantrell Ave,Nashville,TN,37215,741000,2,1.0,Woodmont Park,1488,20037,1939,,498,,Sold,,,http://www.redfin.com/TN/Nashville/905-Cantrell-Ave-37215/home/108129155,REALTRACS,2213230,N,Y,36.1190537,-86.8332312
PAST SALE,,Single Family Residential,100 Blue Mist Ct,Nashville,TN,37217,235000,3,2.0,,1478,17860,1968,,159,,,,,http://www.redfin.com/TN/Nashville/100-Blue-Mist-Ct-37217/home/108111653,,,N,Y,36.091959,-86.6063851
PAST SALE,January-7-2021,Single Family Residential,2960 High Rigger Dr,Nashville,TN,37217,218000,3,2.0,Harbor Landing,1260,10890,1990,,173,,Sold,,,http://www.redfin.com/TN/Nashville/2960-High-Rigger-Dr-37217/home/108007184,REALTRACS,2206330,N,Y,36.0811785,-86.6092349
PAST SALE,February-2-2021,Single Family Residential,705 Country Lawn Ct,Antioch,TN,37013,230000,3,2.0,The Country,1442,11761,1983,,160,,Sold,,,http://www.redfin.com/TN/Antioch/705-Country-Lawn-Ct-37013/home/108098282,REALTRACS,2219315,N,Y,36.0750171,-86.6029298
PAST SALE,February-22-2021,Single Family Residential,700 Piccadilly Row,Antioch,TN,37013,240000,3,2.0,Pinnacle Point,1291,17424,1987,,186,9,Sold,,,http://www.redfin.com/TN/Antioch/700-Piccadilly-Row-37013/home/108085477,REALTRACS,2213642,N,Y,36.0837305,-86.6595539
PAST SALE,,Single Family Residential,4820 Barclay Square Dr,Antioch,TN,37013,135000,3,2.0,,1281,9583,1978,,105,,,,,http://www.redfin.com/TN/Antioch/4820-Barclay-Square-Dr-37013/home/108012098,,,N,Y,36.0707709,-86.6649451
PAST SALE,,Single Family Residential,3276 New Towne Rd,Antioch,TN,37013,150000,3,1.5,,1265,16553,1979,,119,,,,,http://www.redfin.com/TN/Antioch/3276-New-Towne-Rd-37013/home/108014507,,,N,Y,36.0724948,-86.6052543
PAST SALE,April-12-2021,Single Family Residential,508 Owendale Dr,Antioch,TN,37013,255000,3,1.5,Cherry Hills,1277,12196,1968,,200,,Sold,,,http://www.redfin.com/TN/Antioch/508-Owendale-Dr-37013/home/108135555,REALTRACS,2231212,N,Y,36.0786905,-86.621877
PAST SALE,November-24-2020,Single Family Residential,7811 Rainey Dr,Antioch,TN,37013,239400,3,2.5,Old Hickory Hills,1275,6534,2002,,188,15,Sold,,,http://www.redfin.com/TN/Antioch/7811-Rainey-Dr-37013/home/68765733,REALTRACS,2194098,N,Y,36.0082375,-86.6538775
PAST SALE,March-8-2021,Single Family Residential,1008 Cahal Ave,Nashville,TN,37206,410050,3,2.0,Trevecca/Renraw,1420,10890,1930,,289,,Sold,,,http://www.redfin.com/TN/Nashville/1008-Cahal-Ave-37206/unit-A/home/107983546,REALTRACS,2224893,N,Y,36.196822,-86.745563
PAST SALE,March-5-2021,Single Family Residential,1602 Riverwood Dr,Nashville,TN,37216,360000,3,2.0,Country Club Estates,1413,12632,1945,,255,,Sold,,,http://www.redfin.com/TN/Nashville/1602-Riverwood-Dr-37216/home/108024443,REALTRACS,2215603,N,Y,36.2145248,-86.7099016
PAST SALE,March-19-2021,Single Family Residential,3797 Hilltop Ave,Nashville,TN,37216,349900,3,2.0,Maplewood Home Tract,1284,19166,2006,,273,,Sold,,,http://www.redfin.com/TN/Nashville/3797-Hilltop-Ave-37216/home/101660091,REALTRACS,2225665,N,Y,36.2169639,-86.7356455
PAST SALE,,Single Family Residential,1811 Welcome Ln,Nashville,TN,37216,300000,2,1.0,,1386,12632,1962,,216,,,,,http://www.redfin.com/TN/Nashville/1811-Welcome-Ln-37216/home/108081321,,,N,Y,36.1977434,-86.7095871
PAST SALE,December-29-2020,Townhouse,112 Nelson Ct W,Madison,TN,37115,184000,3,2.0,Primrose Meadows,1335,7405,1983,,138,,Sold,,,http://www.redfin.com/TN/Madison/112-Nelson-Ct-W-37115/home/107992982,REALTRACS,2159252,N,Y,36.2827257,-86.7189223
PAST SALE,March-1-2021,Single Family Residential,1059 Gwynn Dr,Nashville,TN,37216,300000,3,2.0,Broadmoor,1266,8712,2000,,237,,Sold,,,http://www.redfin.com/TN/Nashville/1059-Gwynn-Dr-37216/home/88564181,REALTRACS,2223039,N,Y,36.2285155,-86.7259784
PAST SALE,November-24-2020,Single Family Residential,803 Lemont Dr,Nashville,TN,37216,345000,2,1.5,Gra Mar Acres,1496,35719,1956,,231,,Sold,,,http://www.redfin.com/TN/Nashville/803-Lemont-Dr-37216/home/61711914,REALTRACS,2197615,N,Y,36.2369336,-86.7365537
PAST SALE,November-24-2020,Single Family Residential,628 Sandy Spring Trl,Madison,TN,37115,245000,3,2.5,Heron Walk,1400,6534,1999,,175,9,Sold,,,http://www.redfin.com/TN/Madison/628-Sandy-Spring-Trl-37115/home/108011104,REALTRACS,2195423,N,Y,36.2501072,-86.67667
PAST SALE,March-9-2021,Single Family Residential,819 Neelys Bend Rd,Madison,TN,37115,265000,3,2.0,Rainbow Terrace,1500,34848,1953,,177,,Sold,,,http://www.redfin.com/TN/Madison/819-Neelys-Bend-Rd-37115/home/84307504,REALTRACS,2214138,N,Y,36.252578,-86.6940948
PAST SALE,,Single Family Residential,129 Marita Ave,Goodlettsville,TN,37072,200000,3,1.5,,1350,15246,1963,,148,,,,,http://www.redfin.com/TN/Goodlettsville/129-Marita-Ave-37072/home/60717579,,,N,Y,36.2890598,-86.7126535
PAST SALE,December-22-2020,Single Family Residential,303 Bridgeway Ave,Old Hickory,TN,37138,210000,4,2.0,Rayon City,1470,7840,1950,,143,,Sold,,,http://www.redfin.com/TN/Old-Hickory/303-Bridgeway-Ave-37138/home/87818115,REALTRACS,2128728,N,Y,36.2697362,-86.6653857
PAST SALE,December-1-2020,Single Family Residential,806 Due West Ave N,Madison,TN,37115,330000,3,2.5,Madison,1470,46609,1953,,224,,Sold,,,http://www.redfin.com/TN/Madison/806-W-Due-Ave-N-37115/home/102802678,REALTRACS,2200785,N,Y,36.2547838,-86.7440988
PAST SALE,,Single Family Residential,2233 Gilmore Crossing Ln,Nashville,TN,37218,250000,3,2.0,,1417,11326,2004,,176,,,,,http://www.redfin.com/TN/Nashville/2233-Gilmore-Crossing-Ln-37218/home/108138139,,,N,Y,36.2209415,-86.8690995
PAST SALE,March-1-2021,Single Family Residential,1010 Pennock Ave,Nashville,TN,37207,454000,2,2.0,George W Stainback,1485,6534,1920,,306,,Sold,,,http://www.redfin.com/TN/Nashville/1010-Pennock-Ave-37207/home/87813217,REALTRACS,2213407,N,Y,36.1890038,-86.7668345
PAST SALE,March-5-2021,Single Family Residential,3209 Sennadale Ln,Nashville,TN,37207,238000,4,1.0,Parkwood Estates,1325,9583,1961,,180,,Sold,,,http://www.redfin.com/TN/Nashville/3209-Sennadale-Ln-37207/home/107992874,REALTRACS,2220411,N,Y,36.237372,-86.7747268
PAST SALE,February-17-2021,Single Family Residential,218 Hart Ln,Nashville,TN,37207,330000,3,2.0,Underwoods Hart Lane,1360,18730,1983,,243,,Sold,,,http://www.redfin.com/TN/Nashville/218-Hart-Ln-37207/home/107984614,REALTRACS,2174701,N,Y,36.2202755,-86.7546991
PAST SALE,March-2-2021,Single Family Residential,2614 Flamingo Dr,Nashville,TN,37207,344500,4,2.0,Joywood Heights,1395,8712,1952,,247,,Sold,,,http://www.redfin.com/TN/Nashville/2614-Flamingo-Dr-37207/home/108031866,REALTRACS,2221042,N,Y,36.2132177,-86.755249
PAST SALE,December-23-2020,Single Family Residential,124 Lucile St,Nashville,TN,37207,315000,3,1.0,Eastmoreland Place,1260,7405,1920,,250,,Sold,,,http://www.redfin.com/TN/Nashville/124-Lucile-St-37207/home/60713758,REALTRACS,2199637,N,Y,36.1960235,-86.7695047
PAST SALE,November-13-2020,Single Family Residential,310 Queen Ave A Unit A,Nashville,TN,37207,370000,2,2.5,J B Haynies Oriental,1415,6969,2020,,261,,Sold,,,http://www.redfin.com/TN/Nashville/310-Queen-Ave-37207/unit-A/home/86869532,REALTRACS,2197984,N,Y,36.2078516,-86.7620043
PAST SALE,November-25-2020,Single Family Residential,1809 Joy Cir,Nashville,TN,37207,322900,3,1.0,Joywood,1473,15681,1940,,219,,Sold,,,http://www.redfin.com/TN/Nashville/1809-Joy-Cir-37207/home/108122364,REALTRACS,2195633,N,Y,36.2025506,-86.7601977
PAST SALE,,Single Family Residential,1522 Preston Dr,Nashville,TN,37206,376800,3,1.0,,1358,12197,1950,,277,,,,,http://www.redfin.com/TN/Nashville/1522-Preston-Dr-37206/home/101852283,,,N,Y,36.1947804,-86.7176365
PAST SALE,December-18-2020,Single Family Residential,2300 Andrew Pl,Nashville,TN,37216,365000,3,1.0,Gibson Heights,1317,15681,1950,,277,,Sold,,,http://www.redfin.com/TN/Nashville/2300-Andrew-Pl-37216/home/60805501,REALTRACS,2208124,N,Y,36.2038641,-86.70413
PAST SALE,November-20-2020,Single Family Residential,2611 Airpark Dr,Nashville,TN,37206,410000,3,2.0,Dugger Heights,1361,15681,1955,,301,,Sold,,,http://www.redfin.com/TN/Nashville/2611-Airpark-Dr-37206/home/107997209,REALTRACS,2176233,N,Y,36.1914321,-86.7065205
PAST SALE,February-26-2021,Single Family Residential,1232 Neelys Bend Rd,Madison,TN,37115,319900,3,1.5,Marlin Meadows,1415,34848,1955,,226,,Sold,,,http://www.redfin.com/TN/Madison/1232-Neelys-Bend-Rd-37115/home/68793515,REALTRACS,2218842,N,Y,36.2420053,-86.6760799
PAST SALE,,Single Family Residential,206 28th St,Old Hickory,TN,37138,180000,2,1.0,,1287,7405,1935,,140,,,,,http://www.redfin.com/TN/Old-Hickory/206-28th-St-37138/home/60752259,,,N,Y,36.247325,-86.6379349
PAST SALE,November-20-2020,Single Family Residential,4011 Cedar Cir,Nashville,TN,37218,240000,3,1.0,Fairview,1393,13503,1954,,172,,Sold,,,http://www.redfin.com/TN/Nashville/4011-Cedar-Cir-37218/home/108032139,REALTRACS,2202162,N,Y,36.2129153,-86.8424066
PAST SALE,November-17-2020,Single Family Residential,3101 Remington Park Ct,Hermitage,TN,37076,277500,3,2.5,Truxton Park,1483,7405,2003,,187,20,Sold,,,http://www.redfin.com/TN/Hermitage/3101-Remington-Park-Ct-37076/home/68851778,REALTRACS,2196682,N,Y,36.2239873,-86.5936701
PAST SALE,February-26-2021,Single Family Residential,4813 Smokey Dr,Old Hickory,TN,37138,230000,3,1.5,Sherwood Forest,1491,11761,1975,,154,,Sold,,,http://www.redfin.com/TN/Old-Hickory/4813-Smokey-Dr-37138/home/107984299,REALTRACS,2223588,N,Y,36.2264057,-86.5878769
PAST SALE,February-1-2021,Single Family Residential,109 Gibson Dr,Madison,TN,37115,215500,3,1.0,Finnland Heights,1325,13068,1950,,163,,Sold,,,http://www.redfin.com/TN/Madison/109-Gibson-Dr-37115/home/108030079,REALTRACS,2200267,N,Y,36.2618212,-86.7178031
PAST SALE,March-5-2021,Single Family Residential,1109 Gibson Dr,Madison,TN,37115,229000,3,1.0,Stratton Heights,1277,16988,1955,,179,,Sold,,,http://www.redfin.com/TN/Madison/1109-Gibson-Dr-37115/home/108119042,REALTRACS,2216962,N,Y,36.2501839,-86.7225591
PAST SALE,,Single Family Residential,443 Janette Ave,Goodlettsville,TN,37072,136000,2,1.0,,1415,12197,1967,,96,,,,,http://www.redfin.com/TN/Goodlettsville/443-Janette-Ave-37072/home/108072882,,,N,Y,36.2858006,-86.7133808
PAST SALE,February-1-2021,Single Family Residential,2713 Leesa Ann Ln,Old Hickory,TN,37138,285900,3,2.0,Hickory Hills 11,1441,7840,1997,,198,32,Sold,,,http://www.redfin.com/TN/Old-Hickory/2713-Leesa-Ann-Ln-37138/home/68759372,REALTRACS,2226095,N,Y,36.2080149,-86.579994
PAST SALE,December-8-2020,Single Family Residential,2508 Winter Springs Ct,Hermitage,TN,37076,277000,3,2.5,Truxton Park,1464,6534,2002,,189,21,Sold,,,http://www.redfin.com/TN/Hermitage/2508-Winter-Springs-Ct-37076/home/108048493,REALTRACS,2206849,N,Y,36.2220858,-86.5943921
PAST SALE,February-26-2021,Condo/Co-op,2118 15th Ave N,Nashville,TN,37208,325000,3,2.5,Owens Buena Vista,1456,6969,2009,,223,,Sold,,,http://www.redfin.com/TN/Nashville/2118-15th-Ave-N-37208/home/174108115,REALTRACS,2217375,N,Y,36.1864895,-86.810664
PAST SALE,,Single Family Residential,1217 Jackson St,Nashville,TN,37208,425000,3,2.0,,1094,9148,1992,,388,,,,,http://www.redfin.com/TN/Nashville/1217-Jackson-St-37208/home/60872795,,,N,Y,36.1683735,-86.7986707
PAST SALE,December-21-2020,Single Family Residential,901 Oneida Ave,Nashville,TN,37207,365000,3,2.0,Victory Heights,1329,10018,1947,,275,,Sold,,,http://www.redfin.com/TN/Nashville/901-Oneida-Ave-37207/home/108060439,REALTRACS,2207789,N,Y,36.1994686,-86.7543063
PAST SALE,November-19-2020,Single Family Residential,717 Chickasaw Ave,Nashville,TN,37207,197000,3,1.0,Victory Heights,1340,9583,1946,,147,,Sold,,,http://www.redfin.com/TN/Nashville/717-Chickasaw-Ave-37207/home/108120452,REALTRACS,2188740,N,Y,36.2010202,-86.7568593
PAST SALE,January-25-2021,Single Family Residential,1210 N 2nd St N,Nashville,TN,37207,335000,3,2.5,Sharpe & Horns,1500,6969,1918,,223,,Sold,,,http://www.redfin.com/TN/Nashville/1210-N-2nd-St-37207/home/101649796,REALTRACS,2195871,N,Y,36.1922806,-86.7705256
PAST SALE,March-12-2021,Multi-Family (2-4 Unit),1440 Lischey Ave,Nashville,TN,37207,280000,4,2.0,Barkfield Valley Estates,1404,12632,1981,,199,,Sold,,,http://www.redfin.com/TN/Nashville/1440-Lischey-Ave-37207/home/108031739,REALTRACS,2224479,N,Y,36.1990146,-86.7625933
PAST SALE,,Single Family Residential,330 Marshall St,Nashville,TN,37207,270000,4,1.0,,1284,7841,1935,,210,,,,,http://www.redfin.com/TN/Nashville/330-Marshall-St-37207/home/87819226,,,N,Y,36.2010537,-86.7635948
PAST SALE,November-20-2020,Multi-Family (2-4 Unit),505 Douglas Ave,Nashville,TN,37207,319900,2,2.0,Oakwood Park,1435,14374,1960,,223,,Sold,,,http://www.redfin.com/TN/Nashville/505-Douglas-Ave-37207/home/107993946,REALTRACS,2199256,N,Y,36.1943463,-86.761009
PAST SALE,,Single Family Residential,917 S 13th Ct,Nashville,TN,37206,629000,2,1.0,,704,7841,1959,,893,,,,,http://www.redfin.com/TN/Nashville/917-S-13th-Ct-37206/home/108026208,,,N,Y,36.1644138,-86.7475521
PAST SALE,February-2-2021,Single Family Residential,211 Bonnavue Dr,Hermitage,TN,37076,238000,4,2.0,Hermitage Hills,1432,12632,1963,,166,,Sold,,,http://www.redfin.com/TN/Hermitage/211-Bonnavue-Dr-37076/home/68819318,REALTRACS,2205575,N,Y,36.2029091,-86.6270758
PAST SALE,February-2-2021,Single Family Residential,2437 Pleasant Springs Ln,Hermitage,TN,37076,267000,3,2.0,Truxton Park,1368,6534,2002,,195,21,Sold,,,http://www.redfin.com/TN/Hermitage/2437-Pleasant-Springs-Ln-37076/home/108014214,REALTRACS,2215969,N,Y,36.2216025,-86.591979
PAST SALE,January-18-2021,Single Family Residential,6018 Baltic Dr,Hermitage,TN,37076,185000,3,1.0,Dodson Heights,1336,7840,1964,,138,,Sold,,,http://www.redfin.com/TN/Hermitage/6018-Baltic-Dr-37076/home/108025794,REALTRACS,2217671,N,Y,36.1902029,-86.619593
PAST SALE,December-29-2020,Single Family Residential,204 Tonya Ct,Old Hickory,TN,37138,267500,3,2.0,Hampton Park,1344,9583,1994,,199,8,Sold,,,http://www.redfin.com/TN/Old-Hickory/204-Tonya-Ct-37138/home/108073401,REALTRACS,2204833,N,Y,36.2143718,-86.6250345
PAST SALE,December-29-2020,Single Family Residential,5510 Knollcrest,Hermitage,TN,37076,277900,3,2.0,Farmingham Woods,1406,8712,1994,,198,19,Sold,,,http://www.redfin.com/TN/Hermitage/5510-Knollcrest-Ct-37076/home/108020510,REALTRACS,2205034,N,Y,36.1834025,-86.5843692
PAST SALE,April-7-2021,Single Family Residential,213 Bonnavue Dr,Hermitage,TN,37076,262000,3,1.5,Hermitage Hills,1397,11761,1963,,188,,Sold,,,http://www.redfin.com/TN/Hermitage/213-Bonnavue-Dr-37076/home/87279986,REALTRACS,2215300,N,Y,36.2031208,-86.6270758
PAST SALE,February-12-2021,Single Family Residential,1092 Williamson Rd,Goodlettsville,TN,37072,242900,3,2.0,Cimmaron Trace Sec 1,1320,11325,2003,,184,,Sold,,,http://www.redfin.com/TN/Goodlettsville/1092-Williamson-Rd-37072/home/60705857,REALTRACS,2204350,N,Y,36.3636571,-86.7249566
PAST SALE,March-8-2021,Single Family Residential,1005 Neelys Bend Rd,Madison,TN,37115,294900,3,2.5,Madison Heights,1500,10890,2021,,197,,Sold,,,http://www.redfin.com/TN/Madison/1005-Neelys-Bend-Rd-37115/home/173763333,REALTRACS,2208380,N,Y,36.2411371,-86.6727777
PAST SALE,December-11-2020,Single Family Residential,2323 Modena Dr,Nashville,TN,37214,275500,2,1.0,Maplecrest,1359,12632,1950,,203,,Sold,,,http://www.redfin.com/TN/Nashville/2323-Modena-Dr-37214/home/108077531,REALTRACS,2193573,N,Y,36.1785702,-86.6848325
PAST SALE,,Single Family Residential,729 Neelys Bend Rd,Madison,TN,37115,285000,2,1.0,,1287,14810,1950,,221,,,,,http://www.redfin.com/TN/Madison/729-Neelys-Bend-Rd-37115/home/108030206,,,N,Y,36.2532703,-86.6969459
PAST SALE,April-9-2021,Single Family Residential,1016 Shadow Ln,Nashville,TN,37206,456000,3,2.0,Rose Estates,1331,10018,1965,,343,,Sold,,,http://www.redfin.com/TN/Nashville/1016-Shadow-Ln-37206/home/108113299,REALTRACS,2235007,N,Y,36.1877758,-86.7060487
PAST SALE,January-4-2021,Single Family Residential,733 Netherlands Dr,Hermitage,TN,37076,258500,3,2.0,Meadows Of Tulip Grove,1437,12196,1987,,180,,Sold,,,http://www.redfin.com/TN/Hermitage/733-Netherlands-Dr-37076/home/60839045,REALTRACS,2202429,N,Y,36.1989491,-86.5993049
PAST SALE,April-2-2021,Single Family Residential,3815 Bonnacreek Dr,Hermitage,TN,37076,250050,3,3.0,Hermitage Hills,1307,12632,1960,,191,,Sold,,,http://www.redfin.com/TN/Hermitage/3815-Bonnacreek-Dr-37076/home/108082040,REALTRACS,2226617,N,Y,36.1940081,-86.6336833
PAST SALE,December-7-2020,Single Family Residential,227 Bell Rd,Nashville,TN,37217,170000,2,1.0,Edge-O-Lake Estates,1300,12196,1970,,131,,Sold,,,http://www.redfin.com/TN/Nashville/227-Bell-Rd-37217/home/60852328,REALTRACS,2206364,N,Y,36.0835874,-86.6288014
PAST SALE,December-17-2020,Single Family Residential,2805 Creekview Dr,Nashville,TN,37217,250000,4,1.5,Edge-O-Lake Estates,1500,11761,1967,,167,,Sold,,,http://www.redfin.com/TN/Nashville/2805-Creekview-Dr-37217/home/60738616,REALTRACS,2199962,N,Y,36.0786972,-86.6251462
PAST SALE,November-20-2020,Single Family Residential,3845 Creekside Dr,Nashville,TN,37211,222700,3,1.5,Blanchard Heights,1325,31798,1955,,168,,Sold,,,http://www.redfin.com/TN/Nashville/3845-Creekside-Dr-37211/home/108099465,REALTRACS,2193758,N,Y,36.068641,-86.6969263
PAST SALE,January-26-2021,Single Family Residential,357 Foxglove Dr,Nashville,TN,37211,213000,3,1.5,Herbert Heights,1300,7405,1966,,164,,Sold,,,http://www.redfin.com/TN/Nashville/357-Foxglove-Dr-37211/home/108099674,REALTRACS,2219090,N,Y,36.0820378,-86.7229128
PAST SALE,December-22-2020,Single Family Residential,2816 Evergreen Ridge Pt,Nashville,TN,37217,245000,3,2.0,Ransom Park,1353,9583,2004,,181,10,Sold,,,http://www.redfin.com/TN/Nashville/2816-Evergreen-Ridge-Pt-37217/home/108103025,REALTRACS,2201741,N,Y,36.0898157,-86.6571925
PAST SALE,December-21-2020,Single Family Residential,687 Brewer Dr,Nashville,TN,37211,300000,3,1.5,Candlestick Farms,1437,14374,1966,,209,,Sold,,,http://www.redfin.com/TN/Nashville/687-Brewer-Dr-37211/home/108097357,REALTRACS,2204368,N,Y,36.0646034,-86.7370994
PAST SALE,January-16-2021,Single Family Residential,402 Larkway Ct,Nashville,TN,37211,319900,3,1.5,Kingswood Park,1400,22651,1961,,229,,Sold,,,http://www.redfin.com/TN/Nashville/402-Larkway-Ct-37211/home/108014677,REALTRACS,2206129,N,Y,36.0551453,-86.7170169
PAST SALE,January-28-2021,Single Family Residential,5409 Country Dr,Nashville,TN,37211,270000,3,1.0,Hickory Valley,1455,11761,1971,,186,,Sold,,,http://www.redfin.com/TN/Nashville/5409-Country-Dr-37211/home/108132216,REALTRACS,2211173,N,Y,36.0508087,-86.7043187
PAST SALE,December-4-2020,Single Family Residential,497 Whispering Hills Dr,Nashville,TN,37211,332000,3,1.0,Whispering Hills,1308,15681,1957,,254,,Sold,,,http://www.redfin.com/TN/Nashville/497-Whispering-Hills-Dr-37211/home/108010274,REALTRACS,2204493,N,Y,36.0603971,-86.7213013
PAST SALE,December-17-2020,Single Family Residential,4918 Cimarron Way,Antioch,TN,37013,220000,3,3.0,Apache Hills,1318,13939,1974,,167,,Sold,,,http://www.redfin.com/TN/Antioch/4918-Cimarron-Way-37013/home/102802628,REALTRACS,2186148,N,Y,36.0591592,-86.6885101
PAST SALE,November-20-2020,Multi-Family (2-4 Unit),916 Algonquin Ct,Antioch,TN,37013,208000,4,2.0,Haywood Hills,1416,10890,1977,,147,,Sold,,,http://www.redfin.com/TN/Antioch/916-Algonquin-Ct-37013/home/108010496,REALTRACS,2199545,N,Y,36.0581794,-86.6837508
PAST SALE,January-20-2021,Single Family Residential,3289 Anderson Rd,Antioch,TN,37013,208000,3,2.0,The Country,1411,17859,1978,,147,,Sold,,,http://www.redfin.com/TN/Antioch/3289-Anderson-Rd-37013/home/68816526,REALTRACS,2209117,N,Y,36.0796358,-86.6064953
PAST SALE,November-17-2020,Single Family Residential,5912 Kinsdale Dr,Nashville,TN,37211,260000,3,1.0,Forest Acres Estates,1300,17859,1966,,200,,Sold,,,http://www.redfin.com/TN/Nashville/5912-Kinsdale-Dr-37211/home/60859958,REALTRACS,2192912,N,Y,36.0314741,-86.7143832
PAST SALE,December-23-2020,Single Family Residential,1112 Crestfield Dr,Nashville,TN,37211,290000,3,2.0,Bradford Hills,1316,6534,1991,,220,10,Sold,,,http://www.redfin.com/TN/Nashville/1112-Crestfield-Dr-37211/home/108100731,REALTRACS,2207492,N,Y,36.0239708,-86.719454
PAST SALE,December-22-2020,Single Family Residential,2815 General Maney Ct,LA VERGNE,TN,37086,243000,3,2.0,Madison Square Sec 2,1316,10454,2000,,185,,Sold,,,http://www.redfin.com/TN/La-Vergne/2815-General-Maney-Ct-37086/home/86628019,REALTRACS,2208577,N,Y,36.0288876,-86.5729771
PAST SALE,November-13-2020,Single Family Residential,6613 Ascot Dr,Antioch,TN,37013,255000,3,2.0,Long Hunter Chase,1332,6969,2001,,191,11,Sold,,,http://www.redfin.com/TN/Antioch/6613-Ascot-Dr-37013/home/60746225,REALTRACS,2196937,N,Y,36.0713129,-86.5859851
PAST SALE,December-31-2020,Single Family Residential,1500 Long Ave,Nashville,TN,37206,355000,2,2.0,Edgefield Land,1346,7405,1920,,264,,Sold,,,http://www.redfin.com/TN/Nashville/1500-Long-Ave-37206/home/108035177,REALTRACS,2204751,N,Y,36.1694718,-86.7449179
PAST SALE,January-22-2021,Single Family Residential,307 Chapel Ave,Nashville,TN,37206,388500,2,1.0,Weakley Home Place,1260,10890,1935,,308,,Sold,,,http://www.redfin.com/TN/Nashville/307-Chapel-Ave-37206/home/108025511,REALTRACS,2205552,N,Y,36.1873324,-86.7379245
PAST SALE,,Single Family Residential,2419 Eden St,Nashville,TN,37208,190000,5,1.0,,1486,7405,1935,,128,,,,,http://www.redfin.com/TN/Nashville/2419-Eden-St-37208/home/108000909,,,N,Y,36.1643634,-86.8136198
PAST SALE,January-11-2021,Single Family Residential,112 Lutie St,Nashville,TN,37210,347000,3,2.0,Cumberland Nurseries,1488,7405,2014,,233,,Sold,,,http://www.redfin.com/TN/Nashville/112-Lutie-St-37210/home/60834538,REALTRACS,2206775,N,Y,36.1173236,-86.7423053
PAST SALE,December-15-2020,Single Family Residential,211 Joyner Ave,Nashville,TN,37210,339000,2,2.0,Woodbine,1446,11325,1925,,234,,Sold,,,http://www.redfin.com/TN/Nashville/211-Joyner-Ave-37210/home/105434395,REALTRACS,2204369,N,Y,36.1160283,-86.7445839
PAST SALE,March-18-2021,Single Family Residential,65 Lutie St,Nashville,TN,37210,369000,3,2.0,Sterling Heights,1250,12632,1949,,295,,Sold,,,http://www.redfin.com/TN/Nashville/65-Lutie-St-37210/home/102802251,REALTRACS,2227794,N,Y,36.1166334,-86.7379638
PAST SALE,April-15-2021,Single Family Residential,2121 Sadler Ave,Nashville,TN,37210,400000,3,2.0,Sadler Place,1375,8276,1940,,291,,Sold,,,http://www.redfin.com/TN/Nashville/2121-Sadler-Ave-37210/home/60779984,REALTRACS,2231042,N,Y,36.1283333,-86.7472357
PAST SALE,December-28-2020,Single Family Residential,3250 Priest Woods Dr,Nashville,TN,37214,201900,3,2.0,Percy Priest Woods,1398,7840,1983,,144,,Sold,,,http://www.redfin.com/TN/Nashville/3250-Priest-Woods-Dr-37214/home/87812763,REALTRACS,2205306,N,Y,36.128067,-86.6344
PAST SALE,,Single Family Residential,3400 White Pine Dr,Nashville,TN,37214,335000,3,2.0,,1328,15682,1989,,252,,,,,http://www.redfin.com/TN/Nashville/3400-White-Pine-Dr-37214/home/108125899,,,N,Y,36.1427252,-86.6337316
PAST SALE,,Single Family Residential,3125 Hillside Rd,Nashville,TN,37207,220000,4,1.0,,1500,23087,1945,,147,,,,,http://www.redfin.com/TN/Nashville/3125-Hillside-Rd-37207/home/60850370,,,N,Y,36.231778,-86.7557077
PAST SALE,,Single Family Residential,3908 Stilton Dr,Nashville,TN,37207,170000,2,1.0,,1381,40946,1958,,123,,,,,http://www.redfin.com/TN/Nashville/3908-Stilton-Dr-37207/home/87817896,,,N,Y,36.2625554,-86.7666774
PAST SALE,February-5-2021,Single Family Residential,4220 Home Haven Dr,Nashville,TN,37218,319900,3,2.0,North Nashville,1330,13939,1975,,241,,Sold,,,http://www.redfin.com/TN/Nashville/4220-Home-Haven-Dr-37218/home/107994482,REALTRACS,2218695,N,Y,36.2174982,-86.8572639
PAST SALE,February-24-2021,Single Family Residential,3953 Stilton Dr,Nashville,TN,37207,298500,3,1.5,Bellshire Estates,1493,42688,1959,,200,,Sold,,,http://www.redfin.com/TN/Nashville/3953-Stilton-Dr-37207/home/108071837,REALTRACS,2222314,N,Y,36.2649489,-86.7695066
PAST SALE,January-3-2021,Single Family Residential,4572 Whites Creek Pike,Whites Creek,TN,37189,265000,3,2.0,Mill Stream,1289,17859,1997,,206,,Sold,,,http://www.redfin.com/TN/Whites-Creek/4572-Whites-Creek-Pike-37189/home/108077313,REALTRACS,2172236,N,Y,36.270815,-86.8319763
PAST SALE,December-29-2020,Condo/Co-op,2603 Alpine Park Ave,Nashville,TN,37218,369900,2,2.5,Bordeaux,1470,11325,2020,,252,,Sold,,,http://www.redfin.com/TN/Nashville/2603-Alpine-Park-Ave-37218/home/171276533,REALTRACS,2194336,N,Y,36.2030269,-86.8283063
PAST SALE,,Single Family Residential,231 Prince Ave,Nashville,TN,37207,325000,3,1.0,,1424,11761,1950,,228,,,,,http://www.redfin.com/TN/Nashville/231-Prince-Ave-37207/home/60745956,,,N,Y,36.2066286,-86.7637715
PAST SALE,,Single Family Residential,3837 Buena Vista Pike,Nashville,TN,37218,215000,3,2.0,,1274,10454,1985,,169,,,,,http://www.redfin.com/TN/Nashville/3837-Buena-Vista-Pike-37218/home/108031358,,,N,Y,36.2158892,-86.8190098
PAST SALE,April-9-2021,Single Family Residential,5252 Buena Vista Pike,Nashville,TN,37218,274000,3,2.0,Creekside,1443,9583,2005,,190,15,Sold,,,http://www.redfin.com/TN/Nashville/5252-Buena-Vista-Pike-37218/home/60870601,REALTRACS,2238846,N,Y,36.2413674,-86.8277408
PAST SALE,April-8-2021,Single Family Residential,2738 Combs Dr,Nashville,TN,37207,180000,3,1.0,Trinity Hills Village,1500,9583,1972,,120,,Sold,,,http://www.redfin.com/TN/Nashville/2738-Combs-Dr-37207/home/108074379,REALTRACS,2236586,N,Y,36.2179605,-86.7930587
PAST SALE,November-17-2020,Single Family Residential,8305 Ramstone Way,Antioch,TN,37013,273500,3,2.5,Old Hickory Hills,1470,12196,2005,,186,17,Sold,,,http://www.redfin.com/TN/Antioch/8305-Ramstone-Way-37013/home/108015896,REALTRACS,2198979,N,Y,36.0116625,-86.6502654
PAST SALE,,Single Family Residential,943 W Greenwood Ave,Nashville,TN,37206,260000,3,2.5,,1320,20473,1927,,197,,,,,http://www.redfin.com/TN/Nashville/943-W-Greenwood-Ave-37206/home/107996030,,,N,Y,36.1912479,-86.7510854
PAST SALE,April-29-2021,Single Family Residential,1734 24th Ave N,Nashville,TN,37208,322500,3,2.0,Cobbs/Bosley,1333,7405,1935,,242,,Sold,,,http://www.redfin.com/TN/Nashville/1734-24th-Ave-N-37208/home/68828568,REALTRACS,2218256,N,Y,36.1787752,-86.815346
PAST SALE,,Other,1525 Arthur Ave,Nashville,TN,37208,287500,,,,,7405,,,,,,,,http://www.redfin.com/TN/Nashville/1525-Arthur-Ave-37208/home/103930292,,,N,Y,36.1761164,-86.7998087
PAST SALE,April-9-2021,Single Family Residential,2405 Hammond Dr,Nashville,TN,37208,285000,3,2.0,Fisk Park,1430,6969,1956,,199,,Sold,,,http://www.redfin.com/TN/Nashville/2405-Hammond-Dr-37208/home/108025522,REALTRACS,2193690,N,Y,36.1727774,-86.8145659
PAST SALE,February-23-2021,Single Family Residential,915 Ilawood Dr,Nashville,TN,37211,198000,4,2.0,Dreamland Estates,1468,6534,1985,,135,,Sold,,,http://www.redfin.com/TN/Nashville/915-Ilawood-Dr-37211/home/108100830,REALTRACS,2220849,N,Y,36.0399674,-86.7063857
PAST SALE,December-24-2020,Single Family Residential,511 Southcrest Dr,Nashville,TN,37211,275000,3,1.0,Whispering Hills,1400,23958,1958,,196,,Sold,,,http://www.redfin.com/TN/Nashville/511-Southcrest-Dr-37211/home/108131572,REALTRACS,2212273,N,Y,36.0616549,-86.7238561
PAST SALE,January-11-2021,Single Family Residential,3214 Avenal Ave,Nashville,TN,37211,380000,3,2.0,Gammel,1408,18295,1955,,270,,Sold,,,http://www.redfin.com/TN/Nashville/3214-Avenal-Ave-37211/home/107975891,REALTRACS,2212847,N,Y,36.1024273,-86.7317553
PAST SALE,March-2-2021,Single Family Residential,3341 Mimosa Dr,Nashville,TN,37211,355500,2,1.0,Glencoe Acres,1500,16117,1953,,237,,Sold,,,http://www.redfin.com/TN/Nashville/3341-Mimosa-Dr-37211/home/72136786,REALTRACS,2215795,N,Y,36.0959884,-86.7258212
PAST SALE,February-5-2021,Single Family Residential,199 Woodson Ln,Nashville,TN,37211,375000,3,2.0,Parma Heights,1400,11325,1953,,268,,Sold,,,http://www.redfin.com/TN/Nashville/199-Woodson-Ln-37211/home/108004254,REALTRACS,2205133,N,Y,36.0938205,-86.7287687
PAST SALE,December-14-2020,Single Family Residential,2917 Wingate Ave,Nashville,TN,37211,335000,3,2.0,Tuggle Heights,1432,10890,1942,,234,,Sold,,,http://www.redfin.com/TN/Nashville/2917-Wingate-Ave-37211/home/108039732,REALTRACS,2178468,N,Y,36.1081142,-86.7350168
PAST SALE,,Multi-Family (2-4 Unit),1307 Clifton Ln,Nashville,TN,37215,620000,4,2.0,,1484,25265,1948,,418,,,,,http://www.redfin.com/TN/Nashville/1307-Clifton-Ln-37215/home/108026052,,,N,Y,36.1137092,-86.7947855
PAST SALE,,Multi-Family (2-4 Unit),1722 Pecan St,Nashville,TN,37208,225000,4,2.0,,1400,7405,1963,,161,,,,,http://www.redfin.com/TN/Nashville/1722-Pecan-St-37208/home/87804365,,,N,Y,36.1869175,-86.8140122
PAST SALE,March-2-2021,Single Family Residential,1916 11th Ave N,Nashville,TN,37208,327500,3,2.0,Williams & Valentino,1488,7405,1930,,220,,Sold,,,http://www.redfin.com/TN/Nashville/1916-11th-Ave-N-37208/home/104488012,REALTRACS,2192835,N,Y,36.1837699,-86.8055769
PAST SALE,February-28-2021,Single Family Residential,1224 Anduin Ave,Antioch,TN,37013,250000,3,2.0,Rivendell Woods,1315,6969,2007,,190,25,Sold,,,http://www.redfin.com/TN/Antioch/1224-Anduin-Ave-37013/home/68831299,REALTRACS,2224217,N,Y,36.0338812,-86.6697319
PAST SALE,April-5-2021,Single Family Residential,813 Point Break Cir S,Antioch,TN,37013,220000,3,2.0,South Shore,1482,9147,2014,,148,35,Sold,,,http://www.redfin.com/TN/Antioch/813-Point-Break-Cir-S-37013/home/87808503,REALTRACS,2229974,N,Y,36.051657,-86.5841327
PAST SALE,February-25-2021,Single Family Residential,726 Wildview Dr,Nashville,TN,37211,338500,3,2.0,Battlewood,1451,23522,1955,,233,,Sold,,,http://www.redfin.com/TN/Nashville/726-Wildview-Dr-37211/home/108021352,REALTRACS,2211376,N,Y,36.1073547,-86.7125945
PAST SALE,,Single Family Residential,913 Drummond Dr,Nashville,TN,37211,380000,4,4.0,,2704,21780,1955,,141,,,,,http://www.redfin.com/TN/Nashville/913-Drummond-Dr-37211/home/108006725,,,N,Y,36.1086718,-86.7119066
PAST SALE,May-6-2021,Single Family Residential,813 Carlyle Pl,Nashville,TN,37211,285000,3,2.0,Battlewood,1336,41382,1958,,213,,Sold,,,http://www.redfin.com/TN/Nashville/813-Carlyle-Pl-37211/home/87806175,REALTRACS,2239476,N,Y,36.113946,-86.7140294
PAST SALE,January-5-2021,Single Family Residential,5203 Dove Trl,Hermitage,TN,37076,187500,2,1.5,Hunters Point,1381,9583,1984,,136,,Sold,,,http://www.redfin.com/TN/Hermitage/5203-Dove-Trl-37076/home/108052463,REALTRACS,2209181,N,Y,36.161976,-86.581329
PAST SALE,March-5-2021,Single Family Residential,217 Graylynn Dr,Nashville,TN,37214,272000,2,2.0,Eva Mor Heights,1345,16988,1950,,202,,Sold,,,http://www.redfin.com/TN/Nashville/217-Graylynn-Dr-37214/home/86596417,REALTRACS,2216434,N,Y,36.1657972,-86.6757258
PAST SALE,February-26-2021,Single Family Residential,112 Donelsonwood Dr,Nashville,TN,37214,287000,3,2.0,Donelsonwood,1400,14810,1995,,205,,Sold,,,http://www.redfin.com/TN/Nashville/112-Donelsonwood-Dr-37214/home/60870602,REALTRACS,2222869,N,Y,36.1664561,-86.6586192
PAST SALE,April-21-2021,Single Family Residential,2639 Woodberry Dr,Nashville,TN,37214,259000,3,1.0,Woodberry Park,1375,14374,1955,,188,,Sold,,,http://www.redfin.com/TN/Nashville/2639-Woodberry-Dr-37214/home/108037126,REALTRACS,2227381,N,Y,36.1601985,-86.6676666
PAST SALE,February-10-2021,Condo/Co-op,5403 Centennial Blvd #201,Nashville,TN,37209,374900,2,2.0,Boomerang,1390,7840,2020,,270,250,Sold,,,http://www.redfin.com/TN/Nashville/5403-Centennial-Blvd-37209/unit-201/home/171700743,REALTRACS,2185515,N,Y,36.1648254,-86.8536875
PAST SALE,November-20-2020,Townhouse,554 Doral Country Dr,Nashville,TN,37221,219000,3,2.0,Doral Country Villa,1346,7405,1973,,163,230,Sold,,,http://www.redfin.com/TN/Nashville/554-Doral-Country-Dr-37221/home/60654879,REALTRACS,2197220,N,Y,36.0718592,-86.945221
PAST SALE,November-18-2020,Single Family Residential,1807 Martin St,Nashville,TN,37203,425000,2,1.5,Arlyne Heights,1398,10018,1945,,304,,Sold,,,http://www.redfin.com/TN/Nashville/1807-Martin-St-37203/home/68818765,REALTRACS,2207955,N,Y,36.1344753,-86.7706041
PAST SALE,,Single Family Residential,2012 Bakers Grove Ln,Hermitage,TN,37076,133000,3,1.0,,1276,21780,1950,,104,,,,,http://www.redfin.com/TN/Hermitage/2012-Bakers-Grove-Ln-37076/home/108054045,,,N,Y,36.1029341,-86.5517825
PAST SALE,,Multi-Family (2-4 Unit),1303 Grandview Dr,Nashville,TN,37215,606000,4,2.0,,1334,9148,1950,,454,,,,,http://www.redfin.com/TN/Nashville/1303-Grandview-Dr-37215/home/108003946,,,N,Y,36.1082769,-86.796
PAST SALE,February-23-2021,Single Family Residential,213 Oceanfront Cir S,Antioch,TN,37013,208000,3,2.0,South Shore,1355,6969,2005,,154,35,Sold,,,http://www.redfin.com/TN/Antioch/213-Oceanfront-Cir-S-37013/home/108138840,REALTRACS,2221085,N,Y,36.0524901,-86.5835809
PAST SALE,May-4-2021,Single Family Residential,507 Washington Ct,LA VERGNE,TN,37086,261000,3,2.0,Ben Franklin Est,1328,11325,1990,,197,,Sold,,,http://www.redfin.com/TN/La-Vergne/507-Washington-Ct-37086/home/86596234,REALTRACS,2241190,N,Y,36.0312572,-86.5682461
PAST SALE,,Single Family Residential,3404 Harvest Ct,Antioch,TN,37013,260000,3,2.0,,1460,10890,1978,,178,,,,,http://www.redfin.com/TN/Antioch/3404-Harvest-Ct-37013/home/60804683,,,N,Y,36.0814204,-86.6058453
PAST SALE,April-21-2021,Single Family Residential,709 Clearwater Ct,Nashville,TN,37217,187900,2,2.5,Edge-O-Lake,1280,7405,1985,,147,,Sold,,,http://www.redfin.com/TN/Nashville/709-Clearwater-Ct-37217/home/108065126,REALTRACS,2231808,N,Y,36.0768752,-86.6302625
PAST SALE,April-23-2021,Single Family Residential,2906 Anderson Rd,Nashville,TN,37217,230000,3,2.0,Edge-O-Lake Estates,1338,11325,1969,,172,,Sold,,,http://www.redfin.com/TN/Nashville/2906-Anderson-Rd-37217/home/108131702,REALTRACS,2244462,N,Y,36.0745522,-86.628699
PAST SALE,April-27-2021,Single Family Residential,3209 Hamilton Church Rd,Antioch,TN,37013,189000,3,2.0,Antioch,1344,87120,1997,,141,,Sold,,,http://www.redfin.com/TN/Antioch/3209-Hamilton-Church-Rd-37013/home/108132109,REALTRACS,2244057,N,Y,36.0640909,-86.6189639
PAST SALE,January-20-2021,Single Family Residential,3141 Stoney Brook Cir,Antioch,TN,37013,225000,3,2.0,Towne Village Of The Count,1257,10454,1979,,179,,Sold,,,http://www.redfin.com/TN/Antioch/3141-Stoneybrook-Cir-37013/home/89196044,REALTRACS,2213080,N,Y,36.0721417,-86.6077757
PAST SALE,January-11-2021,Single Family Residential,3617 Lipton Pl,Antioch,TN,37013,243000,3,2.0,Lake Towne Park,1282,8712,1989,,190,,Sold,,,http://www.redfin.com/TN/Antioch/3617-Lipton-Pl-37013/home/68811560,REALTRACS,2213332,N,Y,36.0644814,-86.6114381
PAST SALE,December-7-2020,Single Family Residential,2872 Lera Jones Dr,Antioch,TN,37013,273000,3,2.0,Percy Priest Meadows,1323,11761,1976,,206,,Sold,,,http://www.redfin.com/TN/Antioch/2872-Lera-Jones-Dr-37013/home/87823949,REALTRACS,2194051,N,Y,36.0772891,-86.6173086
PAST SALE,December-1-2020,Single Family Residential,3425 Maple Timber Dr,Antioch,TN,37013,247500,3,2.0,Lake Towne Park,1393,9583,1994,,178,,Sold,,,http://www.redfin.com/TN/Antioch/3425-Maple-Timber-Dr-37013/home/107987164,REALTRACS,2198766,N,Y,36.0667565,-86.6083268
PAST SALE,,Single Family Residential,743 E Argyle Ave,Nashville,TN,37203,650000,3,1.0,,1250,7841,1945,,520,,,,,http://www.redfin.com/TN/Nashville/743-E-Argyle-Ave-37203/home/108098244,,,N,Y,36.1356782,-86.7765829
PAST SALE,February-10-2021,Single Family Residential,1941 Omohundro Dr,Nashville,TN,37210,299000,3,1.0,Foxwood,1386,26571,1960,,216,,Sold,,,http://www.redfin.com/TN/Nashville/1941-Omohundro-Dr-37210/home/108061336,REALTRACS,2204875,N,Y,36.1601172,-86.7095478
PAST SALE,February-22-2021,Single Family Residential,541 Lockwood Dr,Nashville,TN,37214,195000,3,1.0,Larkwood,1250,15245,1962,,156,,Sold,,,http://www.redfin.com/TN/Nashville/541-Lockwood-Dr-37214/home/60866165,REALTRACS,2230899,N,Y,36.1454164,-86.6713194
PAST SALE,February-25-2021,Single Family Residential,2510 Park Dr,Nashville,TN,37214,310000,2,2.0,Donelson Park Place,1304,20037,1935,,238,,Sold,,,http://www.redfin.com/TN/Nashville/2510-Park-Dr-37214/home/108084722,REALTRACS,2186382,N,Y,36.1717696,-86.6783254
PAST SALE,February-24-2021,Single Family Residential,2519 David Dr,Nashville,TN,37214,295000,3,1.5,Woodberry Park,1434,18730,1956,,206,,Sold,,,http://www.redfin.com/TN/Nashville/2519-David-Dr-37214/home/108052347,REALTRACS,2209835,N,Y,36.161872,-86.6717128
PAST SALE,March-5-2021,Single Family Residential,2622 Lakeland Dr,Nashville,TN,37214,249000,3,1.5,Martinwood Heights,1386,20037,1954,,180,,Sold,,,http://www.redfin.com/TN/Nashville/2622-Lakeland-Dr-37214/home/107990179,REALTRACS,2226601,N,Y,36.1556748,-86.6728932
PAST SALE,December-15-2020,Single Family Residential,517 Bounty Dr,Nashville,TN,37210,300349,2,2.0,Elm Hill Acres,1500,18730,1958,,200,,Sold,,,http://www.redfin.com/TN/Nashville/517-Bounty-Dr-37210/home/108035649,REALTRACS,2189597,N,Y,36.153618,-86.6951173
PAST SALE,April-19-2021,Single Family Residential,2343 Dennywood Dr,Nashville,TN,37214,309000,3,1.5,Maplecrest,1339,19166,1951,,231,,Sold,,,http://www.redfin.com/TN/Nashville/2343-Dennywood-Dr-37214/home/107999857,REALTRACS,2224284,N,Y,36.1798402,-86.6840262
PAST SALE,March-31-2021,Single Family Residential,238 Graylynn Dr,Nashville,TN,37214,275000,2,1.5,Spring Valley Acres,1366,15681,1959,,201,,Sold,,,http://www.redfin.com/TN/Nashville/238-Graylynn-Dr-37214/home/108000032,REALTRACS,2235962,N,Y,36.1622929,-86.6777322
PAST SALE,April-26-2021,Single Family Residential,2510 Lumar Ln,Nashville,TN,37214,385000,3,2.0,Lincoya Hills,1367,44866,2021,,282,,Sold,,,http://www.redfin.com/TN/Nashville/2510-Lumar-Ln-37214/home/108078291,REALTRACS,2236528,N,Y,36.1795844,-86.676361
PAST SALE,April-30-2021,Single Family Residential,2625 Emery Dr,Nashville,TN,37214,341000,3,1.0,Meadowview Acres,1309,15245,1954,,261,,Sold,,,http://www.redfin.com/TN/Nashville/2625-Emery-Dr-37214/home/60756288,REALTRACS,2238710,N,Y,36.1565996,-86.6723412
PAST SALE,,Multi-Family (2-4 Unit),1425 Stratton Ave,Nashville,TN,37206,350000,3,2.0,,1398,6970,1960,,250,,,,,http://www.redfin.com/TN/Nashville/1425-Stratton-Ave-37206/home/108078185,,,N,Y,36.182422,-86.742841
PAST SALE,,Condo/Co-op,919 Crescent Hill Rd,Nashville,TN,37206,390000,4,2.0,,1408,,1964,,277,,,,,http://www.redfin.com/TN/Nashville/919-Crescent-Hill-Rd-37206/home/68794182,,,N,Y,36.185584,-86.724157
PAST SALE,December-30-2020,Single Family Residential,716 Powers Ave,Nashville,TN,37206,335000,3,1.0,Tillman,1326,11761,1946,,253,,Sold,,,http://www.redfin.com/TN/Nashville/716-Powers-Ave-37206/home/102183557,REALTRACS,2207978,N,Y,36.1837685,-86.7299477
PAST SALE,December-30-2020,Single Family Residential,3821 Asheford Trce,Antioch,TN,37013,247000,3,2.0,Treehaven,1251,9147,2000,,197,33,Sold,,,http://www.redfin.com/TN/Antioch/3821-Asheford-Trce-37013/home/92977013,REALTRACS,2211166,N,Y,36.042371,-86.6219833
PAST SALE,February-12-2021,Single Family Residential,5506 Pennsylvania Ave,Nashville,TN,37209,415000,3,2.0,West Nashville,1360,7405,1925,,305,,Sold,,,http://www.redfin.com/TN/Nashville/5506-Pennsylvania-Ave-37209/home/60808455,REALTRACS,2213318,N,Y,36.1632972,-86.8549822
PAST SALE,April-9-2021,Multi-Family (2-4 Unit),1715 Hillmont Dr,Nashville,TN,37215,840000,4,2.0,Hillmont,1322,18295,1949,,635,,Sold,,,http://www.redfin.com/TN/Nashville/1715-Hillmont-Dr-37215/home/87827157,REALTRACS,2234006,N,Y,36.1085996,-86.8035758
PAST SALE,,Single Family Residential,4851 Sheffield Dr,Nashville,TN,37211,295000,3,2.0,,1406,41382,1961,,210,,,,,http://www.redfin.com/TN/Nashville/4851-Sheffield-Dr-37211/home/107980944,,,N,Y,36.0795255,-86.7311462
PAST SALE,,Multi-Family (2-4 Unit),141 Mccall St,Nashville,TN,37211,245000,3,2.0,,1250,16988,1952,,196,,,,,http://www.redfin.com/TN/Nashville/141-Mccall-St-37211/home/87823102,,,N,Y,36.0981845,-86.7276874
PAST SALE,,Single Family Residential,250 Thuss Ave,Nashville,TN,37211,296000,3,1.0,,1234,8276,1941,,240,,,,,http://www.redfin.com/TN/Nashville/250-Thuss-Ave-37211/home/105490668,,,N,Y,36.1026954,-86.7369422
PAST SALE,,Multi-Family (2-4 Unit),238 Thuss Ave,Nashville,TN,37211,340000,2,2.0,,1424,8276,1941,,239,,,,,http://www.redfin.com/TN/Nashville/238-Thuss-Ave-37211/home/108114664,,,N,Y,36.1025324,-86.7358134
PAST SALE,December-21-2020,Single Family Residential,3342 Mimosa Dr,Nashville,TN,37211,365000,3,2.0,Glencoe Acres,1434,15245,1952,,255,,Sold,,,http://www.redfin.com/TN/Nashville/3342-Mimosa-Dr-37211/home/108091063,REALTRACS,2206561,N,Y,36.0962076,-86.7245242
PAST SALE,April-5-2021,Single Family Residential,449 Bellingrath Dr,Nashville,TN,37211,327000,3,1.0,Abbay Hall,1311,15245,1956,,249,,Sold,,,http://www.redfin.com/TN/Nashville/449-Bellingrath-Dr-37211/home/107975814,REALTRACS,2232837,N,Y,36.0797619,-86.7367261
PAST SALE,January-29-2021,Single Family Residential,8036 Stallion Ct,Nashville,TN,37221,305000,3,1.5,Stacy Square,1375,12632,1969,,222,,Sold,,,http://www.redfin.com/TN/Nashville/8036-Stallion-Ct-37221/home/108128421,REALTRACS,2216115,N,Y,36.0858016,-86.9398172
PAST SALE,February-16-2021,Single Family Residential,743 Albar Dr,Nashville,TN,37221,270000,3,2.0,Doral Country Villa,1395,7405,1977,,194,225,Sold,,,http://www.redfin.com/TN/Nashville/743-Albar-Dr-37221/home/108011674,REALTRACS,2208347,N,Y,36.071325,-86.944115
PAST SALE,December-29-2020,Single Family Residential,2205 11th Ave N,Nashville,TN,37208,202000,3,2.0,Buena Vista,1320,7405,2020,,153,,Sold,,,http://www.redfin.com/TN/Nashville/2205-11th-Ave-N-37208/home/108144563,REALTRACS,2202339,N,Y,36.18861,-86.8082189
PAST SALE,November-24-2020,Single Family Residential,1529 21st Ave N,Nashville,TN,37208,196500,4,2.0,S A Champion,1500,7840,1948,,131,,Sold,,,http://www.redfin.com/TN/Nashville/1529-21st-Ave-N-37208/home/108121708,REALTRACS,2192003,N,Y,36.1743756,-86.8108344
PAST SALE,April-30-2021,Single Family Residential,3101 River Dr,Nashville,TN,37218,265000,4,1.0,Bordeaux,1277,10890,1940,,208,,Sold,,,http://www.redfin.com/TN/Nashville/3101-River-Dr-37218/home/87825709,REALTRACS,2235863,N,Y,36.1916924,-86.8311528
PAST SALE,March-8-2021,Multi-Family (2-4 Unit),3801 Park Ave,Nashville,TN,37209,350000,4,2.0,Charlotte Park,1380,7405,1980,,254,,Sold,,,http://www.redfin.com/TN/Nashville/3801-Park-Ave-37209/home/87805057,REALTRACS,2227681,N,Y,36.1512193,-86.8310743
PAST SALE,November-20-2020,Single Family Residential,3803 Nevada Ave,Nashville,TN,37209,410000,3,2.0,Charlotte Park,1357,7405,1962,,302,,Sold,,,http://www.redfin.com/TN/Nashville/3803-Nevada-Ave-37209/home/60795539,REALTRACS,2200368,N,Y,36.1491864,-86.8311517
PAST SALE,November-16-2020,Vacant Land,157B 37th Ave N,Nashville,TN,37209,176500,,,Homes At 157 37th Avenue N,,10890,,,,,Sold,,,http://www.redfin.com/TN/Nashville/157-37th-Ave-N-37209/home/148400862,REALTRACS,2194525,N,Y,36.145029,-86.829096
PAST SALE,December-3-2020,Condo/Co-op,5403 Centennial Blvd #301,Nashville,TN,37209,374900,2,2.0,Boomerang,1390,7840,2020,,270,250,Sold,,,http://www.redfin.com/TN/Nashville/5403-Centennial-Blvd-37209/unit-301/home/171700742,REALTRACS,2185517,N,Y,36.1648254,-86.8536875
PAST SALE,March-25-2021,Condo/Co-op,5815B Couch Dr,Nashville,TN,37209,410000,2,2.5,5815 Couch Drive,1360,10454,2020,,301,,Sold,,,http://www.redfin.com/TN/Nashville/5815-Couch-Dr-37209/unit-B/home/170540439,REALTRACS,2232896,N,Y,36.1594544,-86.8605954
PAST SALE,April-15-2021,Single Family Residential,211 Belding Dr,Nashville,TN,37214,325000,3,2.0,Stanford Country Club Esta,1352,14374,1960,,240,,Sold,,,http://www.redfin.com/TN/Nashville/211-Belding-Dr-37214/home/60757557,REALTRACS,2234890,N,Y,36.178947,-86.6499583
PAST SALE,December-29-2020,Multi-Family (2-4 Unit),117 32nd Ave S,Nashville,TN,37212,540000,2,2.0,Bransford Realty West End,1261,7405,1960,,428,,Sold,,,http://www.redfin.com/TN/Nashville/117-32nd-Ave-S-37212/home/108085048,REALTRACS,2205651,N,Y,36.140692,-86.815586
PAST SALE,April-19-2021,Single Family Residential,2222 30th Ave S,Nashville,TN,37212,620000,3,2.5,Westmoreland Place,1423,9583,1935,,436,,Sold,,,http://www.redfin.com/TN/Nashville/2222-30th-Ave-S-37212/home/108085158,REALTRACS,2229989,N,Y,36.1290859,-86.8149144
PAST SALE,,Multi-Family (2-4 Unit),195 Hicks Rd,Nashville,TN,37221,345000,4,2.0,,1485,21780,1982,,232,,,,,http://www.redfin.com/TN/Nashville/195-Hicks-Rd-37221/home/87806831,,,N,Y,36.0674853,-86.9254158
PAST SALE,January-26-2021,Single Family Residential,2103 Cooper Ln,Nashville,TN,37216,355000,2,2.0,Riverwood Heights,1463,18730,1960,,243,,Sold,,,http://www.redfin.com/TN/Nashville/2103-Cooper-Ln-37216/home/107975603,REALTRACS,2215745,N,Y,36.2055502,-86.7100589
PAST SALE,December-30-2020,Single Family Residential,2981 Baby Ruth Ln,Antioch,TN,37013,247500,3,2.0,Baby Ruth Lane Estates,1320,14810,2000,,188,,Sold,,,http://www.redfin.com/TN/Antioch/2981-Baby-Ruth-Ln-37013/home/108014342,REALTRACS,2211248,N,Y,36.0474141,-86.6399121
PAST SALE,January-15-2021,Single Family Residential,7424 Stacy Dr,Nashville,TN,37221,310000,3,2.0,Cross Timbers,1350,13939,1969,,230,,Sold,,,http://www.redfin.com/TN/Nashville/7424-Stacy-Dr-37221/home/108091944,REALTRACS,2215679,N,Y,36.0761556,-86.9375869
PAST SALE,April-15-2021,Single Family Residential,7940 Hooten Hows Rd,Nashville,TN,37221,391000,2,2.0,Nashville,1303,87120,1961,,300,,Sold,,,http://www.redfin.com/TN/Nashville/7940-Hooten-Hows-Rd-37221/home/107981489,REALTRACS,2237789,N,Y,36.078771,-86.9688027
PAST SALE,,Single Family Residential,5604 Stoneway Trl,Nashville,TN,37209,450000,3,2.0,,1444,14810,1964,,312,,,,,http://www.redfin.com/TN/Nashville/5604-Stoneway-Trl-37209/home/108035484,,,N,Y,36.1367268,-86.8587533
PAST SALE,,Single Family Residential,5420 Oakmont Cir,Nashville,TN,37209,470000,2,2.5,,1658,10890,1954,,283,,,,,http://www.redfin.com/TN/Nashville/5420-Oakmont-Cir-37209/home/60846200,,,N,Y,36.1410694,-86.851345
PAST SALE,November-13-2020,Single Family Residential,908 Delmas Ave Unit B,Nashville,TN,37216,379900,3,2.0,East Nashville,1351,,2020,,281,,Sold,,,http://www.redfin.com/TN/Nashville/908-Delmas-Ave-37216/unit-B/home/87803815,REALTRACS,2189971,N,Y,36.2007921,-86.7466775
PAST SALE,March-23-2021,Single Family Residential,808 Setliff Pl,Nashville,TN,37206,505000,3,2.0,Eastwood Neighbors,1448,7405,1940,,349,,Sold,,,http://www.redfin.com/TN/Nashville/808-Setliff-Pl-37206/home/68839412,REALTRACS,2229268,N,Y,36.1850563,-86.7383567
PAST SALE,April-16-2021,Single Family Residential,1224 Kenmore Pl,Nashville,TN,37216,335000,2,1.0,Kenmore Place,1458,11325,1929,,230,,Sold,,,http://www.redfin.com/TN/Nashville/1224-Kenmore-Pl-37216/home/87819475,REALTRACS,2214090,N,Y,36.2057212,-86.7318339
PAST SALE,,Single Family Residential,1125 Granada Ave,Nashville,TN,37206,593000,4,3.5,,2728,7405,1930,,217,,,,,http://www.redfin.com/TN/Nashville/1125-Granada-Ave-37206/home/108097269,,,N,Y,36.1878822,-86.7441322
PAST SALE,February-26-2021,Single Family Residential,1302 Woodland St,Nashville,TN,37206,470500,2,2.0,East End/Lockeland Springs,1432,9147,1920,,329,,Sold,,,http://www.redfin.com/TN/Nashville/1302-Woodland-St-37206/home/108035321,REALTRACS,2224235,N,Y,36.1768771,-86.7467821
PAST SALE,December-28-2020,Single Family Residential,1808 Electric Ave,Nashville,TN,37206,360000,2,2.0,Shelby Bottoms,1344,7405,1928,,268,,Sold,,,http://www.redfin.com/TN/Nashville/1808-Electric-Ave-37206/home/108109832,REALTRACS,2214164,N,Y,36.1668836,-86.7385531
PAST SALE,November-25-2020,Single Family Residential,1805 Lakehurst Dr,Nashville,TN,37206,307000,4,1.0,Richardson Place,1408,21344,1936,,218,,Sold,,,http://www.redfin.com/TN/Nashville/1805-Lakehurst-Dr-37206/home/108113214,REALTRACS,2194417,N,Y,36.1787098,-86.7355669
PAST SALE,November-13-2020,Single Family Residential,2805 Meadow Rose Dr,Nashville,TN,37206,327700,3,1.0,Meadow Rose Park,1427,14810,1956,,230,,Sold,,,http://www.redfin.com/TN/Nashville/2805-Meadow-Rose-Dr-37206/unit-A/home/108123093,REALTRACS,2191625,N,Y,36.1846924,-86.7125749
PAST SALE,May-7-2021,Single Family Residential,600 Newhall Dr,Nashville,TN,37206,379900,3,2.5,East Nashville,1415,6534,2021,,268,,Sold,,,http://www.redfin.com/TN/Nashville/600-Newhall-Dr-37206/home/108000015,REALTRACS,2206999,N,Y,36.175164,-86.723518
PAST SALE,November-20-2020,Single Family Residential,1113 Waggoner Ct W,Nashville,TN,37214,210000,3,2.0,Patio Villa,1270,6534,1986,,165,,Sold,,,http://www.redfin.com/TN/Nashville/1113-Waggoner-Ct-W-37214/home/104245517,REALTRACS,2195340,N,Y,36.1462744,-86.6415659
PAST SALE,February-17-2021,Single Family Residential,221 Duke St,Nashville,TN,37207,350000,3,2.0,Haynies Oriental,1366,6969,1925,,256,,Sold,,,http://www.redfin.com/TN/Nashville/221-Duke-St-37207/home/87803781,REALTRACS,2210861,N,Y,36.2074333,-86.7637715
PAST SALE,December-22-2020,Single Family Residential,130 Meridian Ct,Nashville,TN,37207,326900,4,2.0,Meridian Court,1424,12632,1966,,230,,Sold,,,http://www.redfin.com/TN/Nashville/130-Meridian-Ct-37207/home/60864663,REALTRACS,2204720,N,Y,36.1978802,-86.7676591
PAST SALE,November-12-2020,Single Family Residential,882 Sharpe Ave,Nashville,TN,37206,412000,3,2.0,Thornby Place,1394,6969,1899,,296,,Sold,,,http://www.redfin.com/TN/Nashville/882-W-Sharpe-Ave-37206/home/108113447,REALTRACS,2195562,N,Y,36.190505,-86.755426
PAST SALE,March-24-2021,Single Family Residential,813 Chickasaw Ave,Nashville,TN,37207,395000,3,2.0,Victory Heights,1359,8712,1950,,291,,Sold,,,http://www.redfin.com/TN/Nashville/813-Chickasaw-Ave-37207/home/108081926,REALTRACS,2227147,N,Y,36.2005266,-86.754267
PAST SALE,February-10-2021,Single Family Residential,912 Oneida Ave,Nashville,TN,37207,300000,3,2.0,Victory Heights,1384,8712,1947,,217,,Sold,,,http://www.redfin.com/TN/Nashville/912-Oneida-Ave-37207/home/108067826,REALTRACS,2213316,N,Y,36.1988522,-86.7534422
PAST SALE,April-29-2021,Single Family Residential,1005 N 6th St,Nashville,TN,37207,335000,2,1.5,Sharpe & Crutcher,1477,7840,1935,,227,,Sold,,,http://www.redfin.com/TN/Nashville/1005-N-6th-St-37207/home/107998488,REALTRACS,2235561,N,Y,36.188681,-86.7611403
PAST SALE,February-19-2021,Single Family Residential,1617 Riverside Dr,Nashville,TN,37216,395000,3,1.0,Riverside Dr,1285,9583,1945,,307,,Sold,,,http://www.redfin.com/TN/Nashville/1617-Riverside-Dr-37216/home/108035150,REALTRACS,2202644,N,Y,36.1966707,-86.7230307
PAST SALE,February-26-2021,Single Family Residential,312 Pioneer Ln,Nashville,TN,37206,340000,3,1.0,Roselawn,1356,11761,1955,,251,,Sold,,,http://www.redfin.com/TN/Nashville/312-Pioneer-Ln-37206/home/107998943,REALTRACS,2214849,N,Y,36.1861531,-86.7241705
PAST SALE,,Single Family Residential,2112 Pontotoc Ave,Nashville,TN,37206,350000,4,1.0,,1028,9583,1932,,340,,,,,http://www.redfin.com/TN/Nashville/2112-Pontotoc-Ave-37206/home/87820209,,,N,Y,36.1876314,-86.7302227
PAST SALE,April-20-2021,Vacant Land,1605B Tammany Dr N,Nashville,TN,37206,123000,,,Peerman Heights,,20037,,,,,Sold,,,http://www.redfin.com/TN/Nashville/1605-Tammany-Dr-37206/unit-A/home/63123286,REALTRACS,2239183,N,Y,36.1932023,-86.7201222
PAST SALE,April-29-2021,Single Family Residential,1139 Shelton Ave,Nashville,TN,37216,400000,3,2.0,Inglewood Place,1321,8276,1930,,303,,Sold,,,http://www.redfin.com/TN/Nashville/1139-Shelton-Ave-37216/home/68792667,REALTRACS,2239146,N,Y,36.2095114,-86.7294761
PAST SALE,May-8-2021,Single Family Residential,1428 Norvel Ave,Nashville,TN,37216,452000,3,2.0,Shadow Lawn,1487,9583,1945,,304,,Sold,,,http://www.redfin.com/TN/Nashville/1428-Norvel-Ave-37216/home/107999441,REALTRACS,2241889,N,Y,36.2143065,-86.7220481
PAST SALE,,Single Family Residential,1104 Lipscomb Dr,Nashville,TN,37204,565000,2,1.5,,1250,20909,1958,,452,,,,,http://www.redfin.com/TN/Nashville/1104-Lipscomb-Dr-37204/home/87822873,,,N,Y,36.0918404,-86.7970225
PAST SALE,March-11-2021,Single Family Residential,174 Wheeler Ave,Nashville,TN,37211,279000,3,1.0,Farley Heights,1461,18730,1956,,191,,Sold,,,http://www.redfin.com/TN/Nashville/174-Wheeler-Ave-37211/home/108069293,REALTRACS,2230447,N,Y,36.095052,-86.7257033
PAST SALE,March-16-2021,Single Family Residential,416 Veritas St,Nashville,TN,37211,354500,3,2.0,Sunrise Heights,1363,7405,1923,,260,,Sold,,,http://www.redfin.com/TN/Nashville/416-Veritas-St-37211/home/144496971,REALTRACS,2227703,N,Y,36.0979201,-86.7407141
PAST SALE,March-7-2021,Single Family Residential,3121 Lake Park Dr,Nashville,TN,37211,305000,2,1.0,Southlake,1358,10018,1955,,225,,Sold,,,http://www.redfin.com/TN/Nashville/3121-Lake-Park-Dr-37211/home/108114674,REALTRACS,2214153,N,Y,36.1058263,-86.7304192
PAST SALE,,Multi-Family (2-4 Unit),3304 Colby Dr,Nashville,TN,37211,250000,3,2.0,,1250,16117,1958,,200,,,,,http://www.redfin.com/TN/Nashville/3304-Colby-Dr-37211/home/87823054,,,N,Y,36.0976847,-86.7281801
PAST SALE,December-22-2020,Single Family Residential,276 Penfield Dr,Nashville,TN,37211,312650,3,2.0,Kenilworth Estates,1321,10018,1961,,237,,Sold,,,http://www.redfin.com/TN/Nashville/276-Penfield-Dr-37211/home/107981682,REALTRACS,2203053,N,Y,36.0864472,-86.7088401
PAST SALE,March-30-2021,Single Family Residential,4821 Blue Springs Dr,Nashville,TN,37211,187895,3,2.0,Indian Mound,1258,16117,1983,,149,,Sold,,,http://www.redfin.com/TN/Nashville/4821-Blue-Springs-Dr-37211/home/60800547,REALTRACS,2227379,N,Y,36.086973,-86.713832
PAST SALE,,Multi-Family (2-4 Unit),3302 Colby Dr,Nashville,TN,37211,250000,3,2.0,,1250,15246,1956,,200,,,,,http://www.redfin.com/TN/Nashville/3302-Colby-Dr-37211/home/87823056,,,N,Y,36.0979414,-86.7280796
PAST SALE,January-28-2021,Single Family Residential,464 Owendale Dr,Antioch,TN,37013,245000,3,2.0,Cherry Hills,1250,10890,1969,,196,,Sold,,,http://www.redfin.com/TN/Antioch/464-Owendale-Dr-37013/home/68841654,REALTRACS,2215821,N,Y,36.0776116,-86.6227438
PAST SALE,,Single Family Residential,909 High Rigger Ct,Nashville,TN,37217,237000,3,2.0,,1484,12632,1989,,160,,,,,http://www.redfin.com/TN/Nashville/909-High-Rigger-Ct-37217/home/107978127,,,N,Y,36.0786612,-86.6105845
PAST SALE,March-1-2021,Single Family Residential,3409 Country Hill Rd,Antioch,TN,37013,240000,3,2.0,The Country,1454,13068,1978,,165,,Sold,,,http://www.redfin.com/TN/Antioch/3409-Country-Hill-Rd-37013/home/108102672,REALTRACS,2221077,N,Y,36.0801042,-86.6058059
PAST SALE,November-12-2020,Single Family Residential,2920 Mossdale Dr,Antioch,TN,37013,230000,3,1.5,Cherry Hills,1450,14810,1972,,159,,Sold,,,http://www.redfin.com/TN/Antioch/2920-Mossdale-Dr-37013/home/87816972,REALTRACS,2195888,N,Y,36.0774493,-86.6211192
PAST SALE,January-19-2021,Single Family Residential,3212 Harbor Lndg,Antioch,TN,37013,242900,3,2.0,Harbor Landing,1280,10454,1986,,190,,Sold,,,http://www.redfin.com/TN/Antioch/3212-Harbor-Lndg-37013/home/68775204,REALTRACS,2204912,N,Y,36.0797802,-86.6078545
PAST SALE,March-1-2021,Single Family Residential,309 32nd Ave S,Nashville,TN,37212,535000,2,2.0,Bransford Realty West End,1300,7405,1950,,412,,Sold,,,http://www.redfin.com/TN/Nashville/309-32nd-Ave-S-37212/home/108092160,REALTRACS,2220388,N,Y,36.1394227,-86.8146006
PAST SALE,,Single Family Residential,3029 High Rigger Dr,Nashville,TN,37217,190000,3,2.0,,1305,10019,1988,,146,,,,,http://www.redfin.com/TN/Nashville/3029-High-Rigger-Dr-37217/home/108010590,,,N,Y,36.079013,-86.610831
