SALE TYPE,SOLD DATE,PROPERTY TYPE,ADDRESS,CITY,STATE OR PROVINCE,ZIP OR POSTAL CODE,PRICE,BEDS,BATHS,LOCATION,SQUARE FEET,LOT SIZE,YEAR BUILT,DAYS ON MARKET,$/SQUARE FEET,HOA/MONTH,STATUS,NEXT OPEN HOUSE START TIME,NEXT OPEN HOUSE END TIME,URL (SEE http://www.redfin.com/buy-a-home/comparative-market-analysis FOR INFO ON PRICING),SOURCE,MLS#,FAVORITE,INTERESTED,LATITUDE,LONGITUDE
PAST SALE,November-12-2020,Single Family Residential,718 Harpeth Knoll Ct,Nashville,TN,37221,360000,3,3.0,Harpeth Valley Park,2213,18295,1968,,163,,Sold,,,http://www.redfin.com/TN/Nashville/718-Harpeth-Knoll-Ct-37221/home/87824037,REALTRACS,2197031,N,Y,36.057965,-86.934879
PAST SALE,December-9-2020,Single Family Residential,2557 Oak Forest Dr,Antioch,TN,37013,298000,4,2.5,Oakwood,2112,17424,1990,,141,27,Sold,,,http://www.redfin.com/TN/Antioch/2557-Oak-Forest-Dr-37013/home/102802645,REALTRACS,2200846,N,Y,36.0790493,-86.6537742
PAST SALE,April-26-2021,Single Family Residential,532 Bluewater Dr,Nashville,TN,37217,350000,4,3.0,Castlegate,2106,14810,1979,,166,,Sold,,,http://www.redfin.com/TN/Nashville/532-Bluewater-Dr-37217/home/68822659,REALTRACS,2237847,N,Y,36.0838866,-86.6161028
PAST SALE,March-16-2021,Single Family Residential,1214 Littonwood Dr,Nashville,TN,37216,415000,3,2.5,McGaughey Heights,2083,21344,1953,,199,,Sold,,,http://www.redfin.com/TN/Nashville/1214-Littonwood-Dr-37216/home/108080001,REALTRACS,2196646,N,Y,36.2269775,-86.7177245
PAST SALE,November-25-2020,Single Family Residential,2241A Grandview Ave,Nashville,TN,37211,444000,3,2.5,Melrose,2118,7405,2020,,210,,Sold,,,http://www.redfin.com/TN/Nashville/2241A-Grandview-Ave-37211/home/173413204,REALTRACS,2197721,N,Y,36.1230818,-86.7529806
PAST SALE,March-16-2021,Single Family Residential,4707 Wyoming Ave,Nashville,TN,37209,451000,3,2.0,Sylvan Park,2024,8276,1920,,223,,Sold,,,http://www.redfin.com/TN/Nashville/4707-Wyoming-Ave-37209/home/108110480,REALTRACS,2223540,N,Y,36.1452168,-86.8437984
PAST SALE,December-16-2020,Single Family Residential,3725 Elkins Ave,Nashville,TN,37209,580500,3,2.5,Charlotte Park,2166,7405,2009,,268,,Sold,,,http://www.redfin.com/TN/Nashville/3725-Elkins-Ave-37209/home/101683242,REALTRACS,2194779,N,Y,36.15022,-86.8303374
PAST SALE,April-27-2021,Single Family Residential,3726 Park Ave,Nashville,TN,37209,662500,3,2.5,Charlotte Park,2121,7405,2020,,312,,Sold,,,http://www.redfin.com/TN/Nashville/3726-Park-Ave-37209/home/87815463,REALTRACS,2233430,N,Y,36.1517962,-86.8304469
PAST SALE,January-4-2021,Multi-Family (2-4 Unit),5505 Vaught Dr,Nashville,TN,37209,420000,4,2.0,Richland Meadows,2200,8276,1979,,191,,Sold,,,http://www.redfin.com/TN/Nashville/5505-Vaught-Dr-37209/home/108090065,REALTRACS,2205243,N,Y,36.144601,-86.855641
PAST SALE,February-17-2021,Single Family Residential,418 Dunailie Dr,Nashville,TN,37217,275000,3,1.5,Glengarry Park,2204,16988,1965,,125,,Sold,,,http://www.redfin.com/TN/Nashville/418-Dunailie-Dr-37217/home/107978384,REALTRACS,2221177,N,Y,36.1140413,-86.7035716
PAST SALE,November-18-2020,Single Family Residential,625A Freedom Pl,Nashville,TN,37209,491400,3,2.5,Charlotte Park/Croley Wood,2137,,2020,,230,,Sold,,,http://www.redfin.com/TN/Nashville/625-Freedom-Pl-37209/home/108049174,REALTRACS,2205122,N,Y,36.1542872,-86.8770143
PAST SALE,February-22-2021,Single Family Residential,3111 Laurel Forest Dr,Nashville,TN,37214,249000,5,2.0,Hickory Bend,2200,11325,1964,,113,,Sold,,,http://www.redfin.com/TN/Nashville/3111-Laurel-Forest-Dr-37214/home/108061692,REALTRACS,2221347,N,Y,36.1509939,-86.6478249
PAST SALE,April-27-2021,Single Family Residential,504 S Lakeridge Pl,Nashville,TN,37214,380000,3,2.5,Lakeridge,2247,7840,1996,,169,37,Sold,,,http://www.redfin.com/TN/Nashville/504-S-Lakeridge-Pl-37214/home/108054060,REALTRACS,2234650,N,Y,36.1448762,-86.6276272
PAST SALE,April-1-2021,Condo/Co-op,124A Duluth Ave,Nashville,TN,37209,459900,3,2.5,Charlotte Park/BF Cockrill,2010,,2020,,229,,Sold,,,http://www.redfin.com/TN/Nashville/124-Duluth-Ave-37209/home/105231285,REALTRACS,2209391,N,Y,36.1600589,-86.866999
PAST SALE,,Single Family Residential,2316 Revere Pl,Nashville,TN,37214,200000,4,3.0,,2162,18731,1958,,93,,,,,http://www.redfin.com/TN/Nashville/2316-Revere-Pl-37214/home/108002777,,,N,Y,36.1716092,-86.6867009
PAST SALE,March-12-2021,Condo/Co-op,1411 Arthur Ave Unit B,Nashville,TN,37208,490000,4,3.5,1411 Arthur Avenue Townhom,2070,7405,2016,,237,,Sold,,,http://www.redfin.com/TN/Nashville/1411-Arthur-Ave-37208/unit-B/home/112483028,REALTRACS,2222839,N,Y,36.174894,-86.798278
PAST SALE,March-18-2021,Single Family Residential,432 Warren Hill Dr,Mount Juliet,TN,37122,415000,3,2.0,Cobblestone Landing Ph3 Se,2135,8712,2016,,194,65,Sold,,,http://www.redfin.com/TN/Mt-Juliet/432-Warren-Hill-Dr-37122/home/103997329,REALTRACS,2228866,N,Y,36.1848851,-86.5724308
PAST SALE,December-7-2020,Single Family Residential,3201 River Walk Dr,Nashville,TN,37214,337000,4,2.5,Rivers Edge,2052,9583,2001,,164,25,Sold,,,http://www.redfin.com/TN/Nashville/3201-River-Walk-Dr-37214/home/108103000,REALTRACS,2186277,N,Y,36.1797388,-86.6377074
PAST SALE,January-5-2021,Single Family Residential,244 Hermitage Point Dr,Hermitage,TN,37076,382825,3,2.0,Hermitage Point,2042,7840,2020,,187,35,Sold,,,http://www.redfin.com/TN/Hermitage/244-Hermitage-Point-Dr-37076/home/171834795,REALTRACS,2152856,N,Y,36.1733441,-86.6201702
PAST SALE,January-5-2021,Single Family Residential,236 Hermitage Point Dr,Hermitage,TN,37076,402865,3,3.0,Hermitage Point,2162,9147,2020,,186,35,Sold,,,http://www.redfin.com/TN/Hermitage/236-Hermitage-Point-Dr-37076/home/171837096,REALTRACS,2152864,N,Y,36.1733441,-86.6201702
PAST SALE,April-1-2021,Single Family Residential,507 32nd Ave S,Nashville,TN,37212,850000,4,3.0,-,2135,9583,1936,,398,,Sold,,,http://www.redfin.com/TN/Nashville/507-32nd-Ave-S-37212/home/108091641,REALTRACS,2222455,N,Y,36.138039,-86.8135806
PAST SALE,December-2-2020,Condo/Co-op,521 Fatherland St,Nashville,TN,37206,590000,4,3.5,Historic Edgefield,2237,8276,2020,,264,,Sold,,,http://www.redfin.com/TN/Nashville/521-Fatherland-St-37206/unit-A/home/170540054,REALTRACS,2199900,N,Y,36.170796,-86.761919
PAST SALE,December-18-2020,Single Family Residential,81 Brookwood Ter,Nashville,TN,37205,655000,4,3.0,Hillwood Terrace,2201,21344,1964,,298,,Sold,,,http://www.redfin.com/TN/Nashville/81-Brookwood-Ter-37205/home/108035628,REALTRACS,2204374,N,Y,36.1295393,-86.8595372
PAST SALE,,Single Family Residential,1003 Graybar Ln,Nashville,TN,37204,560000,3,2.0,,1758,10019,1945,,319,,,,,http://www.redfin.com/TN/Nashville/1003-Graybar-Ln-37204/home/60789529,,,N,Y,36.1084166,-86.7888043
PAST SALE,,Multi-Family (2-4 Unit),1114 Morrow Ave,Nashville,TN,37204,581049,4,2.0,,2054,11326,1969,,283,,,,,http://www.redfin.com/TN/Nashville/1114-Morrow-Ave-37204/home/60921401,,,N,Y,36.1056344,-86.7941576
PAST SALE,,Single Family Residential,924 Marengo Ln,Nashville,TN,37204,550000,3,1.0,,1254,17860,1945,,439,,,,,http://www.redfin.com/TN/Nashville/924-Marengo-Ln-37204/home/108037367,,,N,Y,36.1130743,-86.7837169
PAST SALE,December-3-2020,Single Family Residential,740 Myhr Dr,Nashville,TN,37221,357500,3,2.0,Harpeth Valley Park,2085,13939,1969,,171,,Sold,,,http://www.redfin.com/TN/Nashville/740-Myhr-Dr-37221/home/60779467,REALTRACS,2197395,N,Y,36.0596302,-86.9402476
PAST SALE,April-28-2021,Single Family Residential,112 Lasalle Ct,Nashville,TN,37205,750000,3,2.0,Courts Of Belle Meade,2155,12632,1949,,348,,Sold,,,http://www.redfin.com/TN/Nashville/112-Lasalle-Ct-37205/home/60792200,REALTRACS,2243256,N,Y,36.102259,-86.862359
PAST SALE,February-5-2021,Single Family Residential,906 Oak St,Nashville,TN,37216,525000,4,2.5,Maplewood Home Tract,2092,9147,1938,,251,,Sold,,,http://www.redfin.com/TN/Nashville/906-Oak-St-37216/home/104209673,REALTRACS,2224321,N,Y,36.2168581,-86.7317553
PAST SALE,March-1-2021,Single Family Residential,908 Crockett St,Nashville,TN,37207,385000,5,2.0,Highland Heights,2016,14374,1948,,191,,Sold,,,http://www.redfin.com/TN/Nashville/908-Crockett-St-37207/home/108096409,REALTRACS,2198723,N,Y,36.1953967,-86.7541606
PAST SALE,March-15-2021,Single Family Residential,1420 Stainback Ave Unit A,Nashville,TN,37207,490210,3,2.5,Highland Land,2074,8712,2021,,236,,Sold,,,http://www.redfin.com/TN/Nashville/1420-Stainback-Ave-37207/unit-A/home/173324521,REALTRACS,2236449,N,Y,36.1982976,-86.764282
PAST SALE,February-10-2021,Single Family Residential,1406 Villa Pl,Nashville,TN,37212,833500,4,2.5,Hanies/Hayes Rokeby,2187,7405,1925,,381,,Sold,,,http://www.redfin.com/TN/Nashville/1406-Villa-Pl-37212/home/108113941,REALTRACS,2217563,N,Y,36.1400996,-86.7922345
PAST SALE,April-15-2021,Single Family Residential,913 15th Ave S,Nashville,TN,37212,865000,3,3.0,Edgehill/Belmont,2160,6534,1917,,400,,Sold,,,http://www.redfin.com/TN/Nashville/913-15th-Ave-S-37212/home/68855223,REALTRACS,2235380,N,Y,36.1469386,-86.7903702
PAST SALE,February-2-2021,Single Family Residential,717 Preservation Way,Nashville,TN,37207,330000,3,2.5,Parmley Cove,2113,7405,2016,,156,26,Sold,,,http://www.redfin.com/TN/Nashville/717-Preservation-Way-37207/home/104500946,REALTRACS,2205045,N,Y,36.2444702,-86.8183189
PAST SALE,December-11-2020,Single Family Residential,709 Preservation Way,Nashville,TN,37207,334000,4,2.5,Parmley Cove,2113,6969,2016,,158,27,Sold,,,http://www.redfin.com/TN/Nashville/709-Preservation-Way-37207/home/107954388,REALTRACS,2197071,N,Y,36.244798,-86.8183467
PAST SALE,February-24-2021,Single Family Residential,1282 Goodmorning Dr,Nashville,TN,37207,330000,3,2.0,Vantage Pointe,2014,10890,2018,,164,16,Sold,,,http://www.redfin.com/TN/Nashville/1282-Goodmorning-Dr-37207/home/68907605,REALTRACS,2219974,N,Y,36.2741247,-86.7678916
PAST SALE,December-21-2020,Single Family Residential,336 Parmley Ln,Nashville,TN,37207,325000,3,2.5,Parmley Cove,2112,7405,2014,,154,29,Sold,,,http://www.redfin.com/TN/Nashville/336-Parmley-Ln-37207/home/60679621,REALTRACS,2202613,N,Y,36.2439511,-86.8197787
PAST SALE,,Single Family Residential,2113 W Richmond Hill Dr,Nashville,TN,37207,245000,3,1.5,,2000,7405,1972,,123,,,,,http://www.redfin.com/TN/Nashville/2113-W-Richmond-Hill-Dr-37207/home/108112867,,,N,Y,36.2360852,-86.7914888
PAST SALE,,Single Family Residential,504 Barbara Dr,Madison,TN,37115,319000,3,3.0,,2131,14375,1955,,150,,,,,http://www.redfin.com/TN/Madison/504-Barbara-Dr-37115/home/105478852,,,N,Y,36.2532655,-86.7253496
PAST SALE,November-23-2020,Single Family Residential,502 Patterson St,Nashville,TN,37211,485000,3,2.5,Patterson/Maple Hill,2000,8712,2016,,243,,Sold,,,http://www.redfin.com/TN/Nashville/502-Patterson-St-37211/home/108070748,REALTRACS,2189894,N,Y,36.1032149,-86.7451536
PAST SALE,February-26-2021,Single Family Residential,2019A 9th Ave N,Nashville,TN,37208,483000,3,2.5,Buena Vista,2220,,2020,,218,,Sold,,,http://www.redfin.com/TN/Nashville/2019-9th-Ave-N-37208/home/104131457,REALTRACS,2215441,N,Y,36.1861058,-86.8040985
PAST SALE,March-17-2021,Single Family Residential,1205 Saint Marys Ln,Nashville,TN,37218,449999,3,2.0,North Nashville/ Bordeaux,2191,20908,1960,,205,,Sold,,,http://www.redfin.com/TN/Nashville/1205-St-Marys-Ln-37218/home/87825768,REALTRACS,2225085,N,Y,36.2084391,-86.822089
PAST SALE,March-19-2021,Single Family Residential,1540 Joe Pyron Dr,Madison,TN,37115,332000,3,2.5,Kimbolton,2206,20037,1992,,150,6,Sold,,,http://www.redfin.com/TN/Madison/1540-Joe-Pyron-Dr-37115/home/108122138,REALTRACS,2228440,N,Y,36.2424263,-86.6668339
PAST SALE,March-23-2021,Single Family Residential,1700 Bondurant St,Old Hickory,TN,37138,330000,3,2.0,Village Of Old Hickory,2224,15681,1954,,148,,Sold,,,http://www.redfin.com/TN/Old-Hickory/1700-Bondurant-St-37138/home/87803090,REALTRACS,2226755,N,Y,36.253018,-86.6420971
PAST SALE,,Multi-Family (2-4 Unit),1005 Debow St,Old Hickory,TN,37138,260000,6,2.0,,2000,8712,1933,,130,,,,,http://www.redfin.com/TN/Old-Hickory/1005-Debow-St-37138/home/107993986,,,N,Y,36.2603824,-86.6488811
PAST SALE,February-6-2021,Condo/Co-op,5001B Michigan Ave,Nashville,TN,37209,554900,4,3.0,NATIONS,2217,,2020,,250,,Sold,,,http://www.redfin.com/TN/Nashville/5001-Michigan-Ave-37209/unit-A/home/87820625,REALTRACS,2199033,N,Y,36.1585668,-86.8477385
PAST SALE,December-22-2020,Single Family Residential,1120A 38th Ave N,Nashville,TN,37209,499000,4,3.0,West Nashville,2129,,2020,,234,,Sold,,,http://www.redfin.com/TN/Nashville/1120-38th-Ave-N-37209/unit-A/home/108047228,REALTRACS,2206642,N,Y,36.1672615,-86.8334665
PAST SALE,January-19-2021,Single Family Residential,1015 42nd Ave N,Nashville,TN,37209,499500,4,3.0,The Nations,2180,7405,2020,,229,,Sold,,,http://www.redfin.com/TN/Nashville/1015-42nd-Ave-N-37209/home/108085509,REALTRACS,2214687,N,Y,36.1619027,-86.8379309
PAST SALE,April-15-2021,Single Family Residential,3219 Mexico Dr,Nashville,TN,37218,207000,3,1.5,Bordeaux Hills,2050,9147,1967,,101,,Sold,,,http://www.redfin.com/TN/Nashville/3219-Mexico-Dr-37218/home/107998081,REALTRACS,2239985,N,Y,36.1808871,-86.8375446
PAST SALE,February-26-2021,Single Family Residential,271 Bonnaspring Dr,Hermitage,TN,37076,235000,4,2.5,Hermitage Hills,2200,11761,1966,,107,,Sold,,,http://www.redfin.com/TN/Hermitage/271-Bonnaspring-Dr-37076/home/108033083,REALTRACS,2220498,N,Y,36.2015868,-86.6239344
PAST SALE,,Single Family Residential,540 Albany Dr,Hermitage,TN,37076,296000,4,2.0,,2190,19602,1969,,135,,,,,http://www.redfin.com/TN/Hermitage/540-Albany-Dr-37076/home/108067290,,,N,Y,36.2109348,-86.6007691
PAST SALE,January-29-2021,Single Family Residential,612 Dutchmans Dr,Hermitage,TN,37076,309400,4,3.0,Highlands Of Tulip Grove,2074,12632,1974,,149,,Sold,,,http://www.redfin.com/TN/Hermitage/612-Dutchmans-Dr-37076/home/108121838,REALTRACS,2214928,N,Y,36.2055565,-86.6008022
PAST SALE,April-22-2021,Single Family Residential,2108 Gina Ln,Hermitage,TN,37076,417000,4,2.5,Tulip Reserve,2028,8712,2017,,206,20,Sold,,,http://www.redfin.com/TN/Hermitage/2108-Gina-Ln-37076/home/108019042,REALTRACS,2236825,N,Y,36.1898505,-86.5936307
PAST SALE,November-20-2020,Single Family Residential,820 Twin Falls Dr,Joelton,TN,37080,309285,4,2.5,The Falls,2114,7840,2020,,146,40,Sold,,,http://www.redfin.com/TN/Joelton/820-Twin-Falls-Dr-37080/home/171970084,REALTRACS,2155939,N,Y,36.3283777,-86.872397
PAST SALE,December-30-2020,Single Family Residential,915 Delmas Ave,Nashville,TN,37216,485000,3,2.5,No subdivision,2006,,2020,,242,,Sold,,,http://www.redfin.com/TN/Nashville/915-Delmas-Ave-37216/unit-A/home/87819428,REALTRACS,2206501,N,Y,36.2010203,-86.7459
PAST SALE,March-1-2021,Condo/Co-op,2437 Inga St,Nashville,TN,37206,405000,3,2.5,Homes At 2437 Inga Street,2016,10890,2016,,201,,Sold,,,http://www.redfin.com/TN/Nashville/2437-Inga-St-37206/home/112483582,REALTRACS,2226501,N,Y,36.1973932,-86.750398
PAST SALE,March-4-2021,Multi-Family (2-4 Unit),1103 Petway Ave,Nashville,TN,37206,435000,6,3.0,Cobbs/R K Brown,2020,7405,1960,,215,,Sold,,,http://www.redfin.com/TN/Nashville/1103-Petway-Ave-37206/home/87804573,REALTRACS,2227678,N,Y,36.1866231,-86.7461357
PAST SALE,May-3-2021,Single Family Residential,301 Chapel Ave,Nashville,TN,37206,725000,4,2.0,Eastwood Neighbors,2079,8712,1930,,349,,Sold,,,http://www.redfin.com/TN/Nashville/301-Chapel-Ave-37206/home/101784823,REALTRACS,2244156,N,Y,36.1868611,-86.737728
PAST SALE,,Single Family Residential,150 Windsor Dr,Nashville,TN,37205,705000,3,1.5,,2164,19166,1950,,326,,,,,http://www.redfin.com/TN/Nashville/150-Windsor-Dr-37205/home/68815596,,,N,Y,36.1021298,-86.8655334
PAST SALE,December-2-2020,Condo/Co-op,607A 39th Ave N,Nashville,TN,37209,439999,3,2.5,Clifton,2023,,2020,,217,,Sold,,,http://www.redfin.com/TN/Nashville/607-39th-Ave-N-37209/home/108021131,REALTRACS,2177002,N,Y,36.155813,-86.833238
PAST SALE,December-15-2020,Single Family Residential,3608 Batavia St,Nashville,TN,37209,475000,4,2.0,College Hill,2208,11761,1955,,215,,Sold,,,http://www.redfin.com/TN/Nashville/3608-Batavia-St-37209/home/108002341,REALTRACS,2186038,N,Y,36.1592087,-86.8286428
PAST SALE,March-8-2021,Single Family Residential,2316 Alteras Dr,Nashville,TN,37211,410000,3,2.5,Lenox Village,2160,9147,2007,,190,90,Sold,,,http://www.redfin.com/TN/Nashville/2316-Alteras-Dr-37211/home/107991149,REALTRACS,2226053,N,Y,36.022708,-86.70268
PAST SALE,,Single Family Residential,4121 Barnes Cove Dr,Antioch,TN,37013,372000,3,3.0,,2140,7405,2011,,174,,,,,http://www.redfin.com/TN/Antioch/4121-Barnes-Cove-Dr-37013/home/68851250,,,N,Y,36.0238617,-86.7014877
PAST SALE,,Condo/Co-op,105 Park Gln,Nashville,TN,37204,232500,2,2.0,,2013,,1985,,115,,,,,http://www.redfin.com/TN/Nashville/105-Park-Gln-37204/home/77299699,,,N,Y,36.093335,-86.796759
PAST SALE,March-4-2021,Single Family Residential,542B Croley Dr,Nashville,TN,37209,514900,3,2.5,Croleywood,2052,,2020,,251,,Sold,,,http://www.redfin.com/TN/Nashville/542-Croley-Dr-37209/unit-A/home/87820717,REALTRACS,2205185,N,Y,36.1523426,-86.8739582
PAST SALE,April-8-2021,Single Family Residential,409 Benita Dr,Nashville,TN,37211,360000,4,2.0,Windsor Park,2200,12632,1965,,164,,Sold,,,http://www.redfin.com/TN/Nashville/409-Benita-Dr-37211/home/60861915,REALTRACS,2231468,N,Y,36.0897239,-86.7169776
PAST SALE,January-29-2021,Single Family Residential,3143 Stafford Dr,Nashville,TN,37214,425000,3,2.5,Stanford Country Club Esta,2000,14810,2020,,213,,Sold,,,http://www.redfin.com/TN/Nashville/3143-Stafford-Dr-37214/home/87826342,REALTRACS,2206420,N,Y,36.1843337,-86.6490058
PAST SALE,December-10-2020,Single Family Residential,4949 Riverbank Dr,Hermitage,TN,37076,402500,3,2.5,The Reserve at Stone Hall,2099,6969,2019,,192,62,Sold,,,http://www.redfin.com/TN/Hermitage/4949-Riverbank-Dr-37076/home/172036779,REALTRACS,2204295,N,Y,36.193498,-86.643914
PAST SALE,November-13-2020,Single Family Residential,6032 Port Anadarko Trl,Hermitage,TN,37076,359000,4,2.0,Lake Park,2187,16988,1979,,164,,Sold,,,http://www.redfin.com/TN/Hermitage/6032-Port-Anadarko-Trl-37076/home/108125349,REALTRACS,2196538,N,Y,36.1644199,-86.5910494
PAST SALE,January-19-2021,Single Family Residential,6817 River Ridge Dr,Nashville,TN,37221,320000,3,2.0,Rolling River Estates,2231,13503,1979,,143,46,Sold,,,http://www.redfin.com/TN/Nashville/6817-River-Ridge-Dr-37221/home/108059080,REALTRACS,2191383,N,Y,36.0615209,-86.9659118
PAST SALE,March-3-2021,Single Family Residential,6329 Willow Oak Dr,Nashville,TN,37221,410000,3,2.5,East Colony At Riverbend,2212,7405,1995,,185,63,Sold,,,http://www.redfin.com/TN/Nashville/6329-Willow-Oak-Dr-37221/home/108098421,REALTRACS,2224055,N,Y,36.0541615,-86.9539567
PAST SALE,April-16-2021,Single Family Residential,6849 Collinswood Dr,Nashville,TN,37221,437300,3,2.5,Poplar Creek Estates,2249,9147,1990,,194,20,Sold,,,http://www.redfin.com/TN/Nashville/6849-Collinswood-Dr-37221/home/107981232,REALTRACS,2239401,N,Y,36.0471577,-86.9619329
PAST SALE,April-28-2021,Single Family Residential,916 Glenridge Ln,Nashville,TN,37221,460000,4,2.5,Riverside,2110,9583,2002,,218,30,Sold,,,http://www.redfin.com/TN/Nashville/916-Glenridge-Ln-37221/home/71642373,REALTRACS,2245511,N,Y,36.0597161,-86.9506622
PAST SALE,March-29-2021,Multi-Family (2-4 Unit),606 Harpeth Bend Dr,Nashville,TN,37221,375000,6,2.0,Harpeth Valley Park,2226,15681,1970,,168,,Sold,,,http://www.redfin.com/TN/Nashville/606-Harpeth-Bend-Dr-37221/home/87806574,REALTRACS,2231390,N,Y,36.0609604,-86.9263438
PAST SALE,April-7-2021,Single Family Residential,1665 Brockton Ln,Nashville,TN,37221,410000,3,3.5,Avondale,2236,7405,2016,,183,50,Sold,,,http://www.redfin.com/TN/Nashville/1665-Brockton-Ln-37221/home/103950749,REALTRACS,2227229,N,Y,36.076483,-86.9852363
PAST SALE,April-2-2021,Single Family Residential,4408 Kirkbrook,Nashville,TN,37221,370000,4,2.5,Riverbridge,2045,6534,2011,,181,33,Sold,,,http://www.redfin.com/TN/Nashville/4408-Kirkbrook-Ct-37221/home/108107341,REALTRACS,2232008,N,Y,36.0695746,-86.979399
PAST SALE,March-8-2021,Single Family Residential,1279 Brentwood Highlands Dr,Nashville,TN,37211,375000,4,3.5,Highlands Of Brentwood,2199,8712,2003,,171,18,Sold,,,http://www.redfin.com/TN/Nashville/1279-Brentwood-Highlands-Dr-37211/home/60834265,REALTRACS,2224751,N,Y,36.0348946,-86.7183927
PAST SALE,February-4-2021,Single Family Residential,4921 Salem Dr,Nashville,TN,37211,499950,3,3.0,Caldwell Country Estates,2197,17424,1960,,228,,Sold,,,http://www.redfin.com/TN/Nashville/4921-Salem-Dr-37211/home/108097426,REALTRACS,2210958,N,Y,36.0717095,-86.7472357
PAST SALE,December-5-2020,Single Family Residential,5000 Manuel Dr,Nashville,TN,37211,446500,3,2.0,Crievewood,2001,21780,1957,,223,,Sold,,,http://www.redfin.com/TN/Nashville/5000-Manuel-Dr-37211/home/60765725,REALTRACS,2204118,N,Y,36.070303,-86.7517139
PAST SALE,January-20-2021,Single Family Residential,4947 Sherman Oaks Dr,Nashville,TN,37211,347000,4,3.0,Hillbrook,2080,14810,1971,,167,,Sold,,,http://www.redfin.com/TN/Nashville/4947-Sherman-Oaks-Dr-37211/home/108050372,REALTRACS,2214423,N,Y,36.0811674,-86.7081324
PAST SALE,,Single Family Residential,694 Candlestick Dr,Nashville,TN,37211,266000,3,2.0,,2102,19602,1966,,127,,,,,http://www.redfin.com/TN/Nashville/694-Candlestick-Dr-37211/home/108132251,,,N,Y,36.0647138,-86.7380424
PAST SALE,February-3-2021,Single Family Residential,5148 Brookstone Ct,Antioch,TN,37013,267170,4,2.0,Hickory Woods Estates,2142,6534,1999,,125,45,Sold,,,http://www.redfin.com/TN/Antioch/5148-Brookstone-Ct-37013/home/103832030,REALTRACS,2214563,N,Y,36.0269684,-86.5831079
PAST SALE,April-30-2021,Single Family Residential,7894 Rainey Dr,Antioch,TN,37013,330000,3,2.5,Old Hickory Hills,2042,7405,2003,,162,17,Sold,,,http://www.redfin.com/TN/Antioch/7894-Rainey-Dr-37013/home/107988889,REALTRACS,2234392,N,Y,36.0099651,-86.6503047
PAST SALE,April-23-2021,Single Family Residential,109 Bart Dr E,Antioch,TN,37013,325000,3,2.0,Colewood Acres,2200,14810,1970,,148,,Sold,,,http://www.redfin.com/TN/Antioch/109-Bart-Dr-37013/home/108099407,REALTRACS,2238477,N,Y,36.0572378,-86.6942521
PAST SALE,February-24-2021,Single Family Residential,3304 Towne Ridge Dr,Antioch,TN,37013,230000,3,1.5,Towne Village Of The Count,2064,16988,1980,,111,,Sold,,,http://www.redfin.com/TN/Antioch/3304-Towne-Ridge-Dr-37013/home/107591266,REALTRACS,2198061,N,Y,36.0719668,-86.6045846
PAST SALE,February-26-2021,Single Family Residential,3209 Sailmist Pt,Antioch,TN,37013,282000,3,2.0,Windhaven Shores,2214,7405,2004,,127,14,Sold,,,http://www.redfin.com/TN/Antioch/3209-Sailmist-Pt-37013/home/108106583,REALTRACS,2214329,N,Y,36.06103,-86.589577
PAST SALE,March-9-2021,Single Family Residential,212 Hickory Ridge Ct,Antioch,TN,37013,330000,4,2.5,Hickory Woods,2243,11761,1996,,147,25,Sold,,,http://www.redfin.com/TN/Antioch/212-Hickory-Ridge-Ct-37013/home/108022586,REALTRACS,2221483,N,Y,36.0363925,-86.5868719
PAST SALE,December-11-2020,Single Family Residential,2412 Rollett Ct,Nashville,TN,37211,390000,3,2.5,Holt Woods,2147,13503,1999,,182,11,Sold,,,http://www.redfin.com/TN/Nashville/2412-Rollett-Ct-37211/home/108101682,REALTRACS,2208021,N,Y,36.0181251,-86.7306751
PAST SALE,November-26-2020,Single Family Residential,6509 Sunnywood Dr,Nashville,TN,37211,369900,3,2.5,Sugar Valley,2160,8276,2015,,171,12,Sold,,,http://www.redfin.com/TN/Nashville/6509-Sunnywood-Dr-37211/home/87809394,REALTRACS,2198569,N,Y,36.0204589,-86.6966117
PAST SALE,March-4-2021,Single Family Residential,304 Blackman Rd,Nashville,TN,37211,495000,3,3.0,Crieve/Caldwell Hall,2089,11761,1960,,237,,Sold,,,http://www.redfin.com/TN/Nashville/304-Blackman-Rd-37211/home/108061469,REALTRACS,2221257,N,Y,36.0745567,-86.7419124
PAST SALE,,Single Family Residential,561 Elysian Fields Rd,Nashville,TN,37211,425000,4,2.5,,2143,15246,1962,,198,,,,,http://www.redfin.com/TN/Nashville/561-Elysian-Fields-Rd-37211/home/108040750,,,N,Y,36.0844652,-86.7482571
PAST SALE,April-15-2021,Single Family Residential,5269 Village Way,Nashville,TN,37211,365000,3,2.5,Villages Of Brentwood,2114,10454,1984,,173,2,Sold,,,http://www.redfin.com/TN/Nashville/5269-Village-Way-37211/home/87807289,REALTRACS,2229328,N,Y,36.0457542,-86.7306157
PAST SALE,February-3-2021,Single Family Residential,8169 Middlewick Ln,Nolensville,TN,37135,395000,3,2.0,Burkitt Place,2078,8276,2010,,190,65,Sold,,,http://www.redfin.com/TN/Nolensville/8169-Middlewick-Ln-37135/home/108045848,REALTRACS,2214945,N,Y,35.9856412,-86.6705718
PAST SALE,March-9-2021,Single Family Residential,8228 Tapoco Ln,Brentwood,TN,37027,399999,3,2.0,Indian Creek,2102,9583,2011,,190,15,Sold,,,http://www.redfin.com/TN/BRENTWOOD/8228-TAPOCO-LN-37027/home/66024865,REALTRACS,2222948,N,Y,36.008485,-86.68815
PAST SALE,January-26-2021,Single Family Residential,3041 Cody Hill Rd,Nashville,TN,37211,380000,3,2.5,Bradford Hills,2247,9147,1994,,169,10,Sold,,,http://www.redfin.com/TN/Nashville/3041-Cody-Hill-Rd-37211/home/60867506,REALTRACS,2214274,N,Y,36.0268613,-86.7211441
PAST SALE,April-23-2021,Single Family Residential,1104 Lenore St,Nashville,TN,37206,950000,4,2.5,Shelby Hills,2160,7840,1959,,440,,Sold,,,http://www.redfin.com/TN/Nashville/1104-Lenore-St-37206/home/108081000,REALTRACS,2244624,N,Y,36.1650216,-86.7511639
PAST SALE,December-17-2020,Single Family Residential,4932 Pebble Creek Dr,Antioch,TN,37013,290000,3,2.5,Pebble Creek,2092,15681,1979,,139,,Sold,,,http://www.redfin.com/TN/Antioch/4932-Pebble-Creek-Dr-37013/home/107978531,REALTRACS,2198275,N,Y,36.0731072,-86.660459
PAST SALE,,Single Family Residential,1820 Annalee Dr,Antioch,TN,37013,255000,3,2.5,,2190,8712,2001,,116,,,,,http://www.redfin.com/TN/Antioch/1820-Annalee-Dr-37013/home/108105794,,,N,Y,36.0214709,-86.6502939
PAST SALE,February-26-2021,Single Family Residential,1992 Carothers Rd #165,Nolensville,TN,37135,457900,3,2.0,Carothers Farms,2073,13068,2019,,221,91,Sold,,,http://www.redfin.com/TN/NOLENSVILLE/1992-CAROTHERS-RD-37135/home/169584867,REALTRACS,2187501,N,Y,35.984592,-86.622975
PAST SALE,December-14-2020,Single Family Residential,2475 Prairie Hill Dr,Antioch,TN,37013,379990,3,2.5,Clover Glen,2077,7840,2020,,183,65,Sold,,,http://www.redfin.com/TN/Cane-Ridge/2475-Prairie-Hill-Dr-37013/home/172111496,REALTRACS,2164603,N,Y,35.9965362,-86.6429378
PAST SALE,January-14-2021,Single Family Residential,104 Castaway Ct,Nashville,TN,37217,278000,4,2.0,Priest Lake Park,2170,12196,1976,,128,,Sold,,,http://www.redfin.com/TN/Nashville/104-Castaway-Ct-37217/home/108096258,REALTRACS,2213879,N,Y,36.1020422,-86.604624
PAST SALE,February-2-2021,Single Family Residential,2740 Mossdale Dr,Nashville,TN,37217,284000,3,2.0,Edge-O-Lake Estates,2023,14810,1965,,140,,Sold,,,http://www.redfin.com/TN/Nashville/2740-Mossdale-Dr-37217/home/87823955,REALTRACS,2218623,N,Y,36.0811488,-86.6248311
PAST SALE,March-29-2021,Single Family Residential,2647 Edge O Lake Dr,Nashville,TN,37217,350000,4,2.0,Edge-O-Lake Estates,2200,18295,1967,,159,,Sold,,,http://www.redfin.com/TN/Nashville/2647-Edge-O-Lake-Dr-37217/home/68828513,REALTRACS,2226319,N,Y,36.0797288,-86.6333314
PAST SALE,,Single Family Residential,1406 Bryan St,Old Hickory,TN,37138,262500,6,2.0,,1920,10019,1929,,137,,,,,http://www.redfin.com/TN/Old-Hickory/1406-Bryan-St-37138/home/94483145,,,N,Y,36.255919,-86.6510275
PAST SALE,December-29-2020,Single Family Residential,7021 Calderwood Dr,Antioch,TN,37013,344900,3,2.0,Indian Creek Estates,2226,7840,2002,,155,17,Sold,,,http://www.redfin.com/TN/Antioch/7021-Calderwood-Dr-37013/home/107989225,REALTRACS,2206865,N,Y,36.0099107,-86.6820594
PAST SALE,February-15-2021,Single Family Residential,412 Red Sunset Ct,Brentwood,TN,37027,433650,3,2.5,The Heights at Autumn Oaks,2066,7840,2020,,210,32,Sold,,,http://www.redfin.com/TN/Brentwood/412-Red-Sunset-Ct-37013/home/172685053,REALTRACS,2178008,N,Y,36.0073515,-86.6955881
PAST SALE,,Single Family Residential,913 Maplewood Pl Unit C,Nashville,TN,37216,500000,3,2.5,,2108,7405,2014,,237,,,,,http://www.redfin.com/TN/Nashville/913-Maplewood-Pl-37216/unit-C/home/108006534,,,N,Y,36.2276892,-86.7283435
PAST SALE,December-21-2020,Condo/Co-op,2604 Neldia Ct Unit A,Nashville,TN,37206,439000,3,2.5,Neldia Heights,2145,6969,2020,,205,,Sold,,,http://www.redfin.com/TN/Nashville/2604-Neldia-Ct-37206/unit-A/home/107981568,REALTRACS,2205824,N,Y,36.1972884,-86.7379027
PAST SALE,,Condo/Co-op,1119 Litton Ave,Nashville,TN,37216,343000,3,2.5,,2252,,2015,,152,,,,,http://www.redfin.com/TN/Nashville/1119-Litton-Ave-37216/home/100379506,,,N,Y,36.202406,-86.7378292
PAST SALE,March-29-2021,Single Family Residential,1140 Kirkland Ave,Nashville,TN,37216,500000,3,3.0,Inglewood Place,2078,21780,1940,,241,,Sold,,,http://www.redfin.com/TN/Nashville/1140-Kirkland-Ave-37216/home/108073215,REALTRACS,2225586,N,Y,36.2077308,-86.7309694
PAST SALE,March-14-2021,Single Family Residential,828 Twin Falls Dr,Joelton,TN,37080,344485,3,2.5,The Falls,2114,7840,2020,,163,40,Sold,,,http://www.redfin.com/TN/Joelton/828-Twin-Falls-Dr-37080/home/174891990,REALTRACS,2244603,N,Y,36.3284227,-86.8728765
PAST SALE,March-15-2021,Single Family Residential,812 Twin Falls Dr,Joelton,TN,37080,304155,3,2.5,The Falls,2114,7840,2020,,144,40,Sold,,,http://www.redfin.com/TN/Joelton/812-Twin-Falls-Dr-37080/home/171172486,REALTRACS,2145878,N,Y,36.3281888,-86.87199
PAST SALE,December-17-2020,Single Family Residential,820 Northstar Ct,Old Hickory,TN,37138,386000,3,2.0,River Landing,2200,8276,2020,,175,30,Sold,,,http://www.redfin.com/TN/Old-Hickory/820-Northstar-Ct-37138/home/108070839,REALTRACS,2198871,N,Y,36.280724,-86.67949
PAST SALE,November-30-2020,Single Family Residential,4717 Phoenix Dr,Hermitage,TN,37076,263000,3,2.0,Tulip Grove,2031,13068,1972,,129,,Sold,,,http://www.redfin.com/TN/Hermitage/4717-Phoenix-Dr-37076/home/92662248,REALTRACS,2192519,N,Y,36.2125585,-86.5938277
PAST SALE,November-12-2020,Single Family Residential,1436 Stoner Rdg,Hermitage,TN,37076,340000,3,2.0,Heritage Meadows,2176,6534,2000,,156,20,Sold,,,http://www.redfin.com/TN/Hermitage/1436-Stoner-Rdg-37076/home/108135100,REALTRACS,2196465,N,Y,36.1985044,-86.6045452
PAST SALE,,Single Family Residential,4200 New Hope Meadow Rd,Hermitage,TN,37076,54375,4,3.0,,2204,17860,1988,,25,,,,,http://www.redfin.com/TN/Hermitage/4200-New-Hope-Meadow-Rd-37076/home/60810730,,,N,Y,36.1900336,-86.5792056
PAST SALE,December-10-2020,Single Family Residential,951 Cahal Ave,Nashville,TN,37206,500000,4,2.5,East Nashville,2145,10018,1933,,233,,Sold,,,http://www.redfin.com/TN/Nashville/951-Cahal-Ave-37206/home/68816521,REALTRACS,2212969,N,Y,36.1969165,-86.7443369
PAST SALE,December-16-2020,Single Family Residential,1423 Greenland Ave,Nashville,TN,37216,485000,3,2.0,Inglewood,2032,13068,1948,,239,,Sold,,,http://www.redfin.com/TN/Nashville/1423-Greenland-Ave-37216/home/108119641,REALTRACS,2200231,N,Y,36.2148229,-86.71228
PAST SALE,December-11-2020,Single Family Residential,2014 Olga Ave,Nashville,TN,37216,468000,4,3.0,Country Club Estates,2050,14810,1948,,228,,Sold,,,http://www.redfin.com/TN/Nashville/2014-Olga-Ave-37216/home/107977071,REALTRACS,2198708,N,Y,36.2125343,-86.7099016
PAST SALE,December-4-2020,Single Family Residential,4936 Riverbank Dr,Hermitage,TN,37076,395000,3,2.5,The Reserve At Stone Hall,2099,6534,2019,,188,65,Sold,,,http://www.redfin.com/TN/Hermitage/4936-Riverbank-Dr-37076/home/169042034,REALTRACS,2202206,N,Y,36.192945,-86.644112
PAST SALE,December-5-2020,Single Family Residential,824 Twin Falls Dr,Joelton,TN,37080,309285,3,2.5,The Falls,2149,7405,2020,,144,50,Sold,,,http://www.redfin.com/TN/Joelton/824-Twin-Falls-Dr-37080/home/173848571,REALTRACS,2211276,N,Y,36.328397,-86.8726039
PAST SALE,November-30-2020,Single Family Residential,3013 Carrington Pl,Nashville,TN,37218,335500,3,2.5,Carrington Place,2012,7405,2007,,167,25,Sold,,,http://www.redfin.com/TN/Nashville/3013-Carrington-Pl-37218/home/68777955,REALTRACS,2190307,N,Y,36.2196649,-86.8639
PAST SALE,,Single Family Residential,947 Fancher Ln,Joelton,TN,37080,75000,,,,,8276,,,,,,,,http://www.redfin.com/TN/Joelton/947-Fancher-Ln-37080/home/173644842,,,N,Y,36.3288703,-86.8725952
PAST SALE,February-10-2021,Single Family Residential,1135 Lady Nashville Dr,Hermitage,TN,37076,343900,4,2.5,Heritage Hills,2073,8276,2018,,166,20,Sold,,,http://www.redfin.com/TN/Hermitage/1135-Lady-Nashville-Dr-37076/home/144497884,REALTRACS,2210205,N,Y,36.2101194,-86.5835615
PAST SALE,December-21-2020,Multi-Family (2-4 Unit),1407 Dr Db Todd Jr Blvd,Nashville,TN,37208,405000,7,3.0,North Nashville,2163,8276,1935,,187,,Sold,,,http://www.redfin.com/TN/Nashville/1407-Dr-DB-Todd-Jr-Blvd-37208/home/87820299,REALTRACS,2209735,N,Y,36.1719048,-86.8079507
PAST SALE,January-29-2021,Single Family Residential,2416B Albion St,Nashville,TN,37208,410000,4,3.0,Hefferman,2090,,2020,,196,,Sold,,,http://www.redfin.com/TN/Nashville/2416-Albion-St-37208/unit-A-B/home/108052518,REALTRACS,2194623,N,Y,36.165639,-86.8137768
PAST SALE,,Single Family Residential,2416 Alameda St,Nashville,TN,37208,240000,5,3.0,,2040,6534,2006,,118,,,,,http://www.redfin.com/TN/Nashville/2416-Alameda-St-37208/home/68762630,,,N,Y,36.1665745,-86.8138945
PAST SALE,,Multi-Family (2-4 Unit),1000 Lischey Ave,Nashville,TN,37207,395000,6,2.0,,2210,7405,1920,,179,,,,,http://www.redfin.com/TN/Nashville/1000-Lischey-Ave-37207/home/107975334,,,N,Y,36.188109,-86.76455
PAST SALE,November-12-2020,Single Family Residential,890 Carter St,Nashville,TN,37206,405000,3,2.5,East Nashville,2160,6534,2020,,188,,Sold,,,http://www.redfin.com/TN/Nashville/890-Carter-St-37206/home/173030854,REALTRACS,2185545,N,Y,36.1895806,-86.7548066
PAST SALE,February-10-2021,Single Family Residential,3231 Lakeshore Dr,Old Hickory,TN,37138,215000,3,2.0,L & C Ins,2042,20473,1950,,105,,Sold,,,http://www.redfin.com/TN/Old-Hickory/3231-Lakeshore-Dr-37138/home/107974706,REALTRACS,2227972,N,Y,36.2400849,-86.6255473
PAST SALE,January-13-2021,Single Family Residential,216 Bonnalynn Dr,Hermitage,TN,37076,320000,4,2.5,Hermitage Hills,2010,12196,1962,,159,,Sold,,,http://www.redfin.com/TN/Hermitage/216-Bonnalynn-Dr-37076/home/87803867,REALTRACS,2211673,N,Y,36.199977,-86.6297536
PAST SALE,February-11-2021,Single Family Residential,613 Casey Pl,Hermitage,TN,37076,328000,3,2.5,Brookside Woods,2055,8712,2001,,160,17,Sold,,,http://www.redfin.com/TN/Hermitage/613-Casey-Pl-37076/home/108098739,REALTRACS,2215113,N,Y,36.2014287,-86.5962751
PAST SALE,,Single Family Residential,517 St Paul Dr,Hermitage,TN,37076,249900,3,2.0,,2145,13068,1972,,117,,,,,http://www.redfin.com/TN/Hermitage/517-St-Paul-Dr-37076/home/108032727,,,N,Y,36.2109376,-86.5932739
PAST SALE,March-29-2021,Single Family Residential,4367 Stone Hall Blvd E,Hermitage,TN,37076,419900,3,2.5,The Reserve At Stone Hall,2099,7840,2019,,200,65,Sold,,,http://www.redfin.com/TN/Hermitage/4367-Stone-Hall-Blvd-37076/home/172036790,REALTRACS,2233355,N,Y,36.192033,-86.644649
PAST SALE,November-13-2020,Single Family Residential,5156 Hickory Grove Dr,Antioch,TN,37013,264900,3,2.5,Hickory Woods,2062,13503,1989,,128,,Sold,,,http://www.redfin.com/TN/Antioch/5156-Hickory-Grove-Dr-37013/home/108096550,REALTRACS,2184763,N,Y,36.0307126,-86.584851
PAST SALE,December-16-2020,Single Family Residential,105 Albatross Ct,LA VERGNE,TN,37086,339900,4,3.0,Brookside Sec 2,2216,10454,2020,,153,17,Sold,,,http://www.redfin.com/TN/La-Vergne/105-Albatross-Ct-37086/home/148179115,REALTRACS,2163563,N,Y,35.9865871,-86.6093401
PAST SALE,January-29-2021,Single Family Residential,148 Claybrook Ln,Antioch,TN,37013,335000,3,2.5,Mill Run,2023,6534,2003,,166,20,Sold,,,http://www.redfin.com/TN/Antioch/148-Claybrook-Ln-37013/home/108014867,REALTRACS,2215297,N,Y,36.0177383,-86.6841442
PAST SALE,December-2-2020,Single Family Residential,1504 Sunbeam Dr,Antioch,TN,37013,315000,3,2.5,Sunset Hills,2046,7840,2014,,154,19,Sold,,,http://www.redfin.com/TN/Antioch/1504-Sunbeam-Dr-37013/home/60852120,REALTRACS,2194236,N,Y,36.0200993,-86.6681717
PAST SALE,December-1-2020,Single Family Residential,2613 Timberland Dr,Nashville,TN,37217,275000,3,2.0,Edge-O-Lake Estates,2101,11761,1972,,131,,Sold,,,http://www.redfin.com/TN/Nashville/2613-Timberland-Dr-37217/home/108011250,REALTRACS,2193012,N,Y,36.0850519,-86.6308956
PAST SALE,November-20-2020,Single Family Residential,7405 Golden Apple Dr,Antioch,TN,37013,340000,3,2.5,Apple Valley,2225,10890,2013,,153,15,Sold,,,http://www.redfin.com/TN/Antioch/7405-Golden-Apple-Dr-37013/home/68853518,REALTRACS,2199432,N,Y,36.0065198,-86.6308749
PAST SALE,January-7-2021,Single Family Residential,209 Sugarberry Ct,Nashville,TN,37211,362900,3,2.0,Sugar Valley,2072,8276,2000,,175,11,Sold,,,http://www.redfin.com/TN/Nashville/209-Sugarberry-Ct-37211/home/106086863,REALTRACS,2208187,N,Y,36.0140598,-86.7001508
PAST SALE,December-23-2020,Single Family Residential,6108 Tuckaleechee Ln,Antioch,TN,37013,335000,3,2.5,Indian Creek Estates,2002,8712,1998,,167,17,Sold,,,http://www.redfin.com/TN/Antioch/6108-Tuckaleechee-Ln-37013/home/68852068,REALTRACS,2201234,N,Y,36.0130377,-86.6807416
PAST SALE,January-27-2021,Single Family Residential,480 Red Sunset Ct,Brentwood,TN,37027,448475,3,2.0,The Heights at Autumn Oaks,2066,8712,2020,,217,32,Sold,,,http://www.redfin.com/TN/Brentwood/480-Red-Sunset-Ct-37013/home/172684973,REALTRACS,2178002,N,Y,36.0072436,-86.696779
PAST SALE,January-13-2021,Single Family Residential,621 Mount Hood Dr,Antioch,TN,37013,305500,4,3.0,Pinnacle Point,2242,7840,1989,,136,10,Sold,,,http://www.redfin.com/TN/Antioch/621-Mt-Hood-Dr-37013/home/108110557,REALTRACS,2208272,N,Y,36.0855853,-86.6545556
PAST SALE,December-14-2020,Single Family Residential,3065 Brantley Dr,Antioch,TN,37013,248000,4,2.5,Percy Priest Meadows,2055,12196,1987,,121,,Sold,,,http://www.redfin.com/TN/Antioch/3065-Brantley-Dr-37013/home/108070357,REALTRACS,2184936,N,Y,36.0785241,-86.6133302
PAST SALE,November-17-2020,Single Family Residential,556 Castlegate Dr,Nashville,TN,37217,260000,4,2.0,Castlegate,2173,13068,1974,,120,,Sold,,,http://www.redfin.com/TN/Nashville/556-Castlegate-Dr-37217/home/69055463,REALTRACS,2197266,N,Y,36.0855643,-86.6128969
PAST SALE,November-19-2020,Single Family Residential,1004 Ainsworth Cir,Antioch,TN,37013,275000,4,2.5,The Country,2229,10454,1991,,123,,Sold,,,http://www.redfin.com/TN/Antioch/1004-Ainsworth-Cir-37013/home/108069159,REALTRACS,2191432,N,Y,36.0791048,-86.6027131
PAST SALE,January-29-2021,Single Family Residential,7232 Autumn Crossing Way,Brentwood,TN,37027,400000,3,2.5,Autumn Oaks,2218,8712,2006,,180,22,Sold,,,http://www.redfin.com/TN/Brentwood/7232-Autumn-Crossing-Way-37027/home/60861044,REALTRACS,2216212,N,Y,36.006313,-86.690216
PAST SALE,December-19-2020,Single Family Residential,456 Red Sunset Ct,Brentwood,TN,37027,437895,3,2.0,The Heights at Autumn Oaks,2027,6969,2020,,216,32,Sold,,,http://www.redfin.com/TN/Brentwood/456-Red-Sunset-Ct-37013/home/173972316,REALTRACS,2214968,N,Y,36.0072436,-86.696779
PAST SALE,November-23-2020,Single Family Residential,7905 Oakfield Grv,Brentwood,TN,37027,375900,3,2.0,Autumn Oaks,2176,6534,2009,,173,22,Sold,,,http://www.redfin.com/TN/Brentwood/7905-Oakfield-Grv-37027/home/108028750,REALTRACS,2196969,N,Y,36.00635,-86.688466
PAST SALE,November-25-2020,Single Family Residential,3432 Cobble St,Nashville,TN,37211,339000,3,2.5,Bradford Hills,2221,7840,1994,,153,12,Sold,,,http://www.redfin.com/TN/Nashville/3432-Cobble-St-37211/home/108011289,REALTRACS,2200575,N,Y,36.0226355,-86.7234238
PAST SALE,December-15-2020,Single Family Residential,3301 Harriet Park Dr,Nashville,TN,37211,450000,4,2.0,Parkside,2052,9583,2016,,219,175,Sold,,,http://www.redfin.com/TN/Nashville/3301-Harriet-Park-Dr-37211/home/101687915,REALTRACS,2203729,N,Y,36.0242948,-86.7391818
PAST SALE,November-23-2020,Single Family Residential,804 Sandworth Cv,Antioch,TN,37013,285000,3,2.5,Summerfield Village,2032,7405,2017,,140,30,Sold,,,http://www.redfin.com/TN/Antioch/804-Sandworth-Cv-37013/home/103929794,REALTRACS,2171051,N,Y,36.0465149,-86.6169147
PAST SALE,,Multi-Family (2-4 Unit),1900 Oakhill Dr,Nashville,TN,37206,358900,4,2.0,,2160,11761,1948,,166,,,,,http://www.redfin.com/TN/Nashville/1900-Oakhill-Dr-37206/home/108079987,,,N,Y,36.1756901,-86.7364236
PAST SALE,December-11-2020,Single Family Residential,1508 Lillian St,Nashville,TN,37206,600000,3,2.5,Lindsley Home Place,2004,7405,2007,,299,,Sold,,,http://www.redfin.com/TN/Nashville/1508-Lillian-St-37206/home/60861669,REALTRACS,2204043,N,Y,36.1721551,-86.7438571
PAST SALE,,Single Family Residential,1410 Rosebank Ave,Nashville,TN,37206,570000,3,2.0,,1552,21344,1950,,367,,,,,http://www.redfin.com/TN/Nashville/1410-Rosebank-Ave-37206/home/108122025,,,N,Y,36.1897792,-86.7095871
PAST SALE,December-2-2020,Multi-Family (2-4 Unit),820 Beth Dr,Nashville,TN,37206,415000,4,2.0,East Towne,2112,11761,1970,,196,,Sold,,,http://www.redfin.com/TN/Nashville/820-Beth-Dr-37206/home/108047338,REALTRACS,2199037,N,Y,36.1808318,-86.7108451
PAST SALE,March-23-2021,Single Family Residential,1605 Woodland St,Nashville,TN,37206,445000,3,2.5,Lockeland Springs,2000,7405,1925,,223,,Sold,,,http://www.redfin.com/TN/Nashville/1605-Woodland-St-37206/home/87829101,REALTRACS,2218305,N,Y,36.1770664,-86.7413624
PAST SALE,March-31-2021,Single Family Residential,907 N 12th St,Nashville,TN,37206,610000,3,2.5,Todd,2068,8712,1876,,295,,Sold,,,http://www.redfin.com/TN/Nashville/907-N-12th-St-37206/home/108003231,REALTRACS,2230802,N,Y,36.1859652,-86.7453107
PAST SALE,,Single Family Residential,1406 Riverside Dr Unit B,Old Hickory,TN,37138,429000,4,2.0,,2106,13068,1929,,204,,,,,http://www.redfin.com/TN/Old-Hickory/1406-Riverside-Dr-37138/unit-B/home/108033062,,,N,Y,36.2553951,-86.6418665
PAST SALE,December-28-2020,Single Family Residential,1704 5th Avenue North,Nashville,TN,37208,707000,3,2.5,Salemtown / Germantown,2070,8712,2007,,342,,Sold,,,http://www.redfin.com/TN/Nashville/1704-5th-Ave-N-37208/home/60787602,REALTRACS,2205726,N,Y,36.1827003,-86.79247
PAST SALE,January-15-2021,Single Family Residential,616 Monte Carlo Dr,Antioch,TN,37013,329900,4,3.0,Monte Carlo Estates,2052,14810,1979,,161,,Sold,,,http://www.redfin.com/TN/Antioch/616-Monte-Carlo-Dr-37013/home/108104052,REALTRACS,2213405,N,Y,36.0345911,-86.7106999
PAST SALE,December-31-2020,Single Family Residential,3504 Park Ave,Nashville,TN,37209,605000,4,3.0,Sylvan Heights,2064,7405,2014,,293,,Sold,,,http://www.redfin.com/TN/Nashville/3504-Park-Ave-37209/home/60787895,REALTRACS,2210361,N,Y,36.1518895,-86.8264436
PAST SALE,April-23-2021,Single Family Residential,2716 Delaware Ave #2,Nashville,TN,37209,735000,4,4.0,M S Pilcher,2162,8712,2020,,340,150,Sold,,,http://www.redfin.com/TN/Nashville/2716-Delaware-Ave-37209/unit-2/home/172526671,REALTRACS,2225216,N,Y,36.156581,-86.8182292
PAST SALE,April-23-2021,Condo/Co-op,2716 Delaware Ave #1,Nashville,TN,37209,780000,4,4.0,M S Pilcher,2162,8712,2020,,361,150,Sold,,,http://www.redfin.com/TN/Nashville/2716-Delaware-Ave-37209/unit-1/home/172526637,REALTRACS,2247395,N,Y,36.156581,-86.8182292
PAST SALE,,Single Family Residential,100 Rose St Unit A,Nashville,TN,37210,469900,3,2.5,,2065,6534,2017,,228,,,,,http://www.redfin.com/TN/Nashville/100-Rose-St-37210/unit-A/home/87822332,,,N,Y,36.1232948,-86.7404481
PAST SALE,January-22-2021,Single Family Residential,100A Rose St,Nashville,TN,37210,469900,3,2.5,Woodbine,2080,7405,2017,,226,,Sold,,,http://www.redfin.com/TN/Nashville/100A-Rose-St-37210/home/173194224,REALTRACS,2211583,N,Y,36.1232893,-86.7404572
PAST SALE,January-19-2021,Single Family Residential,316 Elberta St,Nashville,TN,37210,484500,4,2.0,Cumberland Nurseries,2182,21344,1920,,222,,Sold,,,http://www.redfin.com/TN/Nashville/316-Elberta-St-37210/home/66024866,REALTRACS,2207650,N,Y,36.1191593,-86.7473043
PAST SALE,December-1-2020,Single Family Residential,312 Lutie St,Nashville,TN,37210,479900,4,2.5,Cumberland Nurseries,2057,7405,2016,,233,,Sold,,,http://www.redfin.com/TN/Nashville/312-Lutie-St-37210/home/104500951,REALTRACS,2193203,N,Y,36.1178843,-86.7465679
PAST SALE,,Multi-Family (2-4 Unit),2226 Foster Ave,Nashville,TN,37210,425000,6,4.0,,2128,7405,1999,,200,,,,,http://www.redfin.com/TN/Nashville/2226-Foster-Ave-37210/home/105478897,,,N,Y,36.123466,-86.742289
PAST SALE,,Single Family Residential,3331 Quail View Dr,Nashville,TN,37214,340000,3,3.0,,2028,6534,1995,,168,,,,,http://www.redfin.com/TN/Nashville/3331-Quail-View-Dr-37214/home/107983534,,,N,Y,36.1342465,-86.6368728
PAST SALE,December-15-2020,Single Family Residential,812 Sandburg Pl,Nashville,TN,37214,288800,3,2.0,Reelfoot,2013,10018,1985,,143,,Sold,,,http://www.redfin.com/TN/Nashville/812-Sandburg-Pl-37214/home/108126941,REALTRACS,2206662,N,Y,36.1396497,-86.6332188
PAST SALE,December-28-2020,Single Family Residential,2116 N Ashford Ct,Nashville,TN,37214,323785,3,2.5,Harborview,2062,7405,1991,,157,65,Sold,,,http://www.redfin.com/TN/Nashville/2116-N-Ashford-Ct-37214/home/105413113,REALTRACS,2209990,N,Y,36.1336916,-86.6335565
PAST SALE,,Single Family Residential,3916 Creekway Ct,Nashville,TN,37218,240000,4,3.0,,2065,11761,1984,,116,,,,,http://www.redfin.com/TN/Nashville/3916-Creekway-Ct-37218/home/107977605,,,N,Y,36.2140886,-86.8467584
PAST SALE,February-10-2021,Single Family Residential,753 Preservation Way,Nashville,TN,37207,345000,3,2.5,Parmley Cove,2113,7405,2017,,163,26,Sold,,,http://www.redfin.com/TN/Nashville/753-Preservation-Way-37207/home/113662878,REALTRACS,2217768,N,Y,36.2431815,-86.8181182
PAST SALE,November-30-2020,Single Family Residential,852 Daybreak Dr,Antioch,TN,37013,327400,3,2.5,Sunset Hills,2048,6969,2015,,160,19,Sold,,,http://www.redfin.com/TN/Antioch/852-Daybreak-Dr-37013/home/102803356,REALTRACS,2198690,N,Y,36.0180189,-86.6681717
PAST SALE,April-21-2021,Single Family Residential,1500 Stratton Ave,Nashville,TN,37206,750000,3,2.0,Lockeland Springs,2227,7840,1926,,337,,Sold,,,http://www.redfin.com/TN/Nashville/1500-Stratton-Ave-37206/home/87815252,REALTRACS,2235972,N,Y,36.1819493,-86.7425214
PAST SALE,April-23-2021,Single Family Residential,1613 Long Ave,Nashville,TN,37206,444500,3,2.0,Edgefield Land,2121,7405,1925,,210,,Sold,,,http://www.redfin.com/TN/Nashville/1613-Long-Ave-37206/home/108005514,REALTRACS,2236884,N,Y,36.1695582,-86.7418535
PAST SALE,January-13-2021,Single Family Residential,515 West Bnd,Nashville,TN,37209,525000,4,3.5,Charlotte Park,2228,,2020,,236,,Sold,,,http://www.redfin.com/TN/Nashville/515-W-Bend-Dr-37209/home/108005849,REALTRACS,2209135,N,Y,36.1504974,-86.8730962
PAST SALE,December-11-2020,Multi-Family (2-4 Unit),1521 22nd Ave N,Nashville,TN,37208,405009,6,3.0,S A Champion,2025,7405,1960,,200,,Sold,,,http://www.redfin.com/TN/Nashville/1521-22nd-Ave-N-37208/home/108032793,REALTRACS,2197162,N,Y,36.1739449,-86.8121683
PAST SALE,March-1-2021,Single Family Residential,1615 22nd Ave N Unit A,Nashville,TN,37208,310000,6,3.0,S A Champion,2100,7405,1967,,148,,Sold,,,http://www.redfin.com/TN/Nashville/1615-22nd-Ave-N-37208/unit-A/home/108035058,REALTRACS,2227693,N,Y,36.1758256,-86.8124341
PAST SALE,March-29-2021,Multi-Family (2-4 Unit),1109 Meharry Blvd,Nashville,TN,37208,425000,6,3.0,Germantown,2070,8276,1967,,205,,Sold,,,http://www.redfin.com/TN/Nashville/1109-Meharry-Blvd-37208/home/108108953,REALTRACS,2213854,N,Y,36.1706009,-86.797289
PAST SALE,January-14-2021,Single Family Residential,600 Huntington Pkwy,Nashville,TN,37211,379000,4,3.0,Huntington Park,2025,14374,1970,,187,,Sold,,,http://www.redfin.com/TN/Nashville/600-Huntington-Pkwy-37211/home/87824180,REALTRACS,2208135,N,Y,36.0484188,-86.7318339
PAST SALE,February-26-2021,Single Family Residential,1240 Pineview Ln,Nashville,TN,37211,371000,3,2.5,The Woodlands,2222,8276,1994,,167,26,Sold,,,http://www.redfin.com/TN/Nashville/1240-Pineview-Ln-37211/home/108058009,REALTRACS,2219514,N,Y,36.0329381,-86.7244849
PAST SALE,April-6-2021,Single Family Residential,553 Huntington Pkwy,Nashville,TN,37211,465000,3,2.5,Huntington Park,2185,11761,1972,,213,,Sold,,,http://www.redfin.com/TN/Nashville/553-Huntington-Pkwy-37211/home/60710512,REALTRACS,2235560,N,Y,36.0466446,-86.7258998
PAST SALE,November-13-2020,Single Family Residential,494 Paragon Mills Rd,Nashville,TN,37211,325000,4,2.0,Valley View Meadows,2200,11761,1966,,148,,Sold,,,http://www.redfin.com/TN/Nashville/494-Paragon-Mills-Rd-37211/home/108026355,REALTRACS,2173068,N,Y,36.0880714,-86.7232665
PAST SALE,November-23-2020,Single Family Residential,2712 Sharondale Ct,Nashville,TN,37215,530000,3,3.5,Hillsboro Circle,2084,6534,1948,,254,,Sold,,,http://www.redfin.com/TN/Nashville/2712-Sharondale-Ct-37215/home/60791529,REALTRACS,2188201,N,Y,36.1229997,-86.8092651
PAST SALE,January-14-2021,Condo/Co-op,2137 12th Ave N Unit B,Nashville,TN,37208,421000,3,3.5,North Nashville,2010,6534,2020,,209,,Sold,,,http://www.redfin.com/TN/Nashville/2137-12th-Ave-N-37208/unit-B/home/170003012,REALTRACS,2179603,N,Y,36.1877236,-86.8092651
PAST SALE,November-16-2020,Multi-Family (2-4 Unit),1610 Knowles St,Nashville,TN,37208,263000,5,3.0,Underwood,2128,7840,1930,,124,,Sold,,,http://www.redfin.com/TN/Nashville/1610-Knowles-St-37208/home/107987553,REALTRACS,2201737,N,Y,36.1732846,-86.8048589
PAST SALE,February-23-2021,Single Family Residential,4524 Sandpiper Ln,Antioch,TN,37013,325000,3,2.5,Summerfield Village,2115,7405,2017,,154,33,Sold,,,http://www.redfin.com/TN/Antioch/4524-Sandpiper-Ln-37013/home/108046565,REALTRACS,2220607,N,Y,36.0452914,-86.6150407
PAST SALE,February-22-2021,Single Family Residential,1333 Winthorne Dr,Nashville,TN,37217,335000,3,2.0,Glengarry Park,2025,18730,1964,,165,,Sold,,,http://www.redfin.com/TN/Nashville/1333-Winthorne-Dr-37217/home/87822567,REALTRACS,2214911,N,Y,36.1131867,-86.7033357
PAST SALE,January-28-2021,Single Family Residential,6200 Hampton Hall Way,Hermitage,TN,37076,323500,3,2.0,Hampton Hall,2182,9147,1998,,148,16,Sold,,,http://www.redfin.com/TN/Hermitage/6200-Hampton-Hall-Way-37076/home/108004956,REALTRACS,2198418,N,Y,36.1635323,-86.5800412
PAST SALE,,Single Family Residential,308 Canberra Ct,Hermitage,TN,37076,199995,3,2.0,,2025,16988,1979,,99,,,,,http://www.redfin.com/TN/Hermitage/308-Canberra-Ct-37076/home/60751459,,,N,Y,36.1618061,-86.5900217
PAST SALE,January-28-2021,Single Family Residential,2513 Hessey Pass,Mount Juliet,TN,37122,362500,3,2.0,Lakeside Meadows,2105,16988,2011,,172,20,Sold,,,http://www.redfin.com/TN/Mt-Juliet/2513-Hessey-Pass-37122/home/68779014,REALTRACS,2196172,N,Y,36.1461731,-86.566846
PAST SALE,April-19-2021,Single Family Residential,716 Hallcrest Ct,Hermitage,TN,37076,365000,3,2.0,Hampton Hall,2182,8276,1999,,167,15,Sold,,,http://www.redfin.com/TN/Hermitage/716-Hallcrest-Ct-37076/home/108081399,REALTRACS,2238347,N,Y,36.1641523,-86.5810074
PAST SALE,November-16-2020,Single Family Residential,2109 Grantland Ave,Nashville,TN,37204,675000,3,2.0,Woodland in Waverly,2022,8276,1928,,334,,Sold,,,http://www.redfin.com/TN/Nashville/2109-Grantland-Ave-37204/home/62639895,REALTRACS,2189793,N,Y,36.1311449,-86.7776321
PAST SALE,April-28-2021,Single Family Residential,1721 15th Ave S,Nashville,TN,37212,575000,3,2.0,O B Hayes Rokeby,2090,7405,1935,,275,,Sold,,,http://www.redfin.com/TN/Nashville/1721-15th-Ave-S-37212/home/108038924,REALTRACS,2241888,N,Y,36.136284,-86.7922345
PAST SALE,March-15-2021,Condo/Co-op,6017A Louisiana Ave,Nashville,TN,37209,510000,3,2.5,The Nations,2180,7405,2015,,234,,Sold,,,http://www.redfin.com/TN/Nashville/6017A-Louisiana-Ave-37209/home/167116200,REALTRACS,2228213,N,Y,36.1637127,-86.8618677
PAST SALE,,Condo/Co-op,6005 Pennsylvania Ave Unit B,Nashville,TN,37209,570000,3,3.0,,2080,,2016,,274,,,,,http://www.redfin.com/TN/Nashville/6005-Pennsylvania-Ave-37209/unit-B/home/112483092,,,N,Y,36.1641628,-86.8603308
PAST SALE,April-16-2021,Single Family Residential,5301 Illinois Ave,Nashville,TN,37209,626000,4,3.0,West Nashville,2224,6534,2013,,281,,Sold,,,http://www.redfin.com/TN/Nashville/5301-Illinois-Ave-37209/home/68832617,REALTRACS,2231716,N,Y,36.157275,-86.8518154
PAST SALE,November-30-2020,Single Family Residential,7506 Old Harding Pike,Nashville,TN,37221,375000,3,2.0,River Plantation,2006,,1987,,187,35,Sold,,,http://www.redfin.com/TN/Nashville/7506-Old-Harding-Pike-37221/home/61304039,REALTRACS,2203824,N,Y,36.0633427,-86.9418714
PAST SALE,December-18-2020,Single Family Residential,1328 Maritime Prt,Antioch,TN,37013,304000,3,2.5,Hamilton Run,2005,6969,2019,,152,35,Sold,,,http://www.redfin.com/TN/Antioch/1328-Maritime-Prt-37013/home/148399635,REALTRACS,2206427,N,Y,36.055488,-86.595366
PAST SALE,November-19-2020,Single Family Residential,2400 Blair Blvd,Nashville,TN,37212,725000,3,3.0,Bransford Realty/Edgar Jon,2189,10018,1930,,331,,Sold,,,http://www.redfin.com/TN/Nashville/2400-Blair-Blvd-37212/home/108007114,REALTRACS,2197362,N,Y,36.1311433,-86.8061655
PAST SALE,January-5-2021,Single Family Residential,6708 Cold Stream Dr,Nashville,TN,37221,415000,3,2.5,Allens Green,2219,17424,1995,,187,45,Sold,,,http://www.redfin.com/TN/Nashville/6708-Cold-Stream-Dr-37221/home/108013344,REALTRACS,2204353,N,Y,36.0555591,-86.9671994
PAST SALE,February-12-2021,Single Family Residential,3328 New Towne Rd,Antioch,TN,37013,293000,3,2.5,Towne Village Of The Count,2019,10018,1979,,145,,Sold,,,http://www.redfin.com/TN/Antioch/3328-New-Towne-Rd-37013/home/87816991,REALTRACS,2208174,N,Y,36.0704114,-86.6053152
PAST SALE,November-23-2020,Single Family Residential,6311 Percy Dr,Nashville,TN,37205,395000,4,2.5,Warner Park Valley,2200,15681,1966,,180,,Sold,,,http://www.redfin.com/TN/Nashville/6311-Percy-Dr-37205/home/107987041,REALTRACS,2190904,N,Y,36.0903392,-86.8827538
PAST SALE,December-1-2020,Single Family Residential,1606 Martin St,Nashville,TN,37203,388360,4,1.0,Wedgewood/Houston,2014,7405,1947,,193,,Sold,,,http://www.redfin.com/TN/Nashville/1606-Martin-St-37203/home/87829563,REALTRACS,2204823,N,Y,36.1369828,-86.7696519
PAST SALE,,Multi-Family (2-4 Unit),128 Rains Ave,Nashville,TN,37203,480000,5,4.0,,2160,10019,1950,,222,,,,,http://www.redfin.com/TN/Nashville/128-Rains-Ave-37203/home/108083930,,,N,Y,36.1379375,-86.7637715
PAST SALE,,Single Family Residential,432 Springview Dr,Nashville,TN,37214,250000,3,2.0,,2009,20909,1954,,124,,,,,http://www.redfin.com/TN/Nashville/432-Springview-Dr-37214/home/107990216,,,N,Y,36.1547806,-86.6857765
PAST SALE,March-12-2021,Single Family Residential,2313 Castlewood Dr,Nashville,TN,37214,285000,3,2.0,Castlewood Estates,2242,19602,1960,,127,,Sold,,,http://www.redfin.com/TN/Nashville/2313-Castlewood-Dr-37214/home/108110057,REALTRACS,2228635,N,Y,36.1743319,-86.6870942
PAST SALE,January-11-2021,Single Family Residential,1915 Lebanon Pike,Nashville,TN,37210,190000,2,1.0,Nashville,2000,20037,1955,,95,,Sold,,,http://www.redfin.com/TN/Nashville/1915-Lebanon-Pike-37210/home/108025662,REALTRACS,2214613,N,Y,36.1575229,-86.7061273
PAST SALE,April-16-2021,Single Family Residential,818 Patricia Dr,Nashville,TN,37217,203000,4,3.5,Bel Air,2000,13939,1963,,102,,Sold,,,http://www.redfin.com/TN/Nashville/818-Patricia-Dr-37217/home/108052793,REALTRACS,2240294,N,Y,36.1374439,-86.7048126
PAST SALE,April-20-2021,Single Family Residential,911 Shauna Dr,Nashville,TN,37214,336000,3,2.0,Malvin Heights,2032,15245,1957,,165,,Sold,,,http://www.redfin.com/TN/Nashville/911-Shauna-Dr-37214/home/108126069,REALTRACS,2233050,N,Y,36.1491026,-86.6605771
PAST SALE,,Single Family Residential,213 Walcott Dr,Nashville,TN,37214,359500,4,2.0,,2069,18295,1960,,174,,,,,http://www.redfin.com/TN/Nashville/213-Walcott-Dr-37214/home/68791503,,,N,Y,36.176053,-86.6513675
PAST SALE,November-30-2020,Single Family Residential,1911 Fatherland St,Nashville,TN,37206,644225,4,3.0,Priest Home Place,2161,7840,1930,,298,,Sold,,,http://www.redfin.com/TN/Nashville/1911-Fatherland-St-37206/home/60841773,REALTRACS,2199718,N,Y,36.1730436,-86.7359992
PAST SALE,January-21-2021,Single Family Residential,108 Rock Glen Ct,Antioch,TN,37013,289900,4,2.5,Summerfield Village,2098,6534,2001,,138,33,Sold,,,http://www.redfin.com/TN/Antioch/108-Rockglen-Ct-37013/home/108013912,REALTRACS,2209552,N,Y,36.0485817,-86.6163993
PAST SALE,December-17-2020,Townhouse,5638 Oakes Dr,Brentwood,TN,37027,402000,4,2.5,Brentwood,2172,10018,1986,,185,,Sold,,,http://www.redfin.com/TN/Brentwood/5638-Oakes-Dr-37027/home/87824136,REALTRACS,2207126,N,Y,36.0387573,-86.7733133
PAST SALE,,Single Family Residential,5008 Michigan Ave Unit B,Nashville,TN,37209,617500,4,3.0,,2240,3920,2020,,276,,,,,http://www.redfin.com/TN/Nashville/5008-Michigan-Ave-37209/unit-B/home/108037622,,,N,Y,36.1590485,-86.8483265
PAST SALE,May-8-2021,Single Family Residential,813 40th Ave N,Nashville,TN,37209,569996,3,2.5,Clifton,2122,6534,2021,,269,,Sold,,,http://www.redfin.com/TN/Nashville/813-40th-Ave-N-37209/home/87826406,REALTRACS,2228991,N,Y,36.1587353,-86.8347998
PAST SALE,January-15-2021,Single Family Residential,223 Nunley Dr,Nashville,TN,37211,450000,4,3.0,Nunley Estates,2169,18730,2020,,207,,Sold,,,http://www.redfin.com/TN/Nashville/223-Nunley-Dr-37211/home/144496980,REALTRACS,2208529,N,Y,36.0931484,-86.7212227
PAST SALE,March-2-2021,Single Family Residential,3397 Mimosa Dr,Nashville,TN,37211,440000,4,2.0,Glencoe Acres,2128,15245,1956,,207,,Sold,,,http://www.redfin.com/TN/Nashville/3397-Mimosa-Dr-37211/home/87816525,REALTRACS,2213817,N,Y,36.097649,-86.7182748
PAST SALE,April-12-2021,Single Family Residential,312 Antioch Pike,Nashville,TN,37211,499900,3,2.5,W G Thuss,2049,6534,2018,,244,,Sold,,,http://www.redfin.com/TN/Nashville/312-Antioch-Pike-37211/home/108095556,REALTRACS,2235060,N,Y,36.1017177,-86.7382934
PAST SALE,,Multi-Family (2-4 Unit),3802 Tigerbelle Dr,Nashville,TN,37209,226050,4,2.0,,2048,10890,1979,,110,,,,,http://www.redfin.com/TN/Nashville/3802-Tigerbelle-Dr-37209/home/108035012,,,N,Y,36.1680161,-86.8341416
PAST SALE,January-11-2021,Single Family Residential,225 Leonard Ave,Nashville,TN,37205,731000,4,2.0,Whitland,2025,13068,1930,,361,,Sold,,,http://www.redfin.com/TN/Nashville/225-Leonard-Ave-37205/home/108036439,REALTRACS,2207990,N,Y,36.1290477,-86.8295056
PAST SALE,May-10-2021,Single Family Residential,117 Kenner Ave,Nashville,TN,37205,655000,3,2.0,Green Hills,2151,8712,1925,,305,,Sold,,,http://www.redfin.com/TN/Nashville/117-Kenner-Ave-37205/home/68800787,REALTRACS,2241557,N,Y,36.1237733,-86.8449942
PAST SALE,November-18-2020,Single Family Residential,320 33rd Ave N,Nashville,TN,37209,564900,3,2.5,Sylvan Heights,2155,7405,2006,,262,,Sold,,,http://www.redfin.com/TN/Nashville/320-33rd-Ave-N-37209/home/68819298,REALTRACS,2192083,N,Y,36.1511012,-86.8233873
PAST SALE,,Multi-Family (2-4 Unit),1708 Villa Pl,Nashville,TN,37212,615000,4,2.0,,2080,7405,1932,,296,,,,,http://www.redfin.com/TN/Nashville/1708-Villa-Pl-37212/home/108084674,,,N,Y,36.137249,-86.792852
PAST SALE,March-5-2021,Single Family Residential,1109 W Grove Ave,Nashville,TN,37203,815000,4,2.5,A B Hill,2184,7405,2011,,373,,Sold,,,http://www.redfin.com/TN/Nashville/1109-W-Grove-Ave-37203/home/62639116,REALTRACS,2224938,N,Y,36.1345975,-86.787879
PAST SALE,,Single Family Residential,3241 Cloverwood Dr,Nashville,TN,37214,185000,2,1.0,,2100,12632,1963,,88,,,,,http://www.redfin.com/TN/Nashville/3241-Cloverwood-Dr-37214/home/87815609,,,N,Y,36.1569789,-86.639046
PAST SALE,April-5-2021,Single Family Residential,513 Wolfeboro Ln,Nashville,TN,37221,390000,3,2.0,Avondale Park,2196,7405,2011,,178,50,Sold,,,http://www.redfin.com/TN/Nashville/513-Wolfeboro-Ln-37221/home/68803376,REALTRACS,2230194,N,Y,36.0762765,-86.9945268
PAST SALE,March-31-2021,Single Family Residential,1752 Eastwick Ln,Nashville,TN,37221,425000,3,2.5,Avondale Park,2207,8276,2018,,193,50,Sold,,,http://www.redfin.com/TN/Nashville/1752-Eastwick-Ln-37221/home/141548647,REALTRACS,2223596,N,Y,36.074439,-86.987414
PAST SALE,December-4-2020,Single Family Residential,3706 Woodmont Ln,Nashville,TN,37215,699900,3,2.0,Woodmont Lane Homesites,2021,16117,1950,,346,,Sold,,,http://www.redfin.com/TN/Nashville/3706-Woodmont-Ln-37215/home/68854891,REALTRACS,2197971,N,Y,36.1131763,-86.8379171
PAST SALE,May-6-2021,Single Family Residential,2709 Wortham Ave,Nashville,TN,37215,850000,4,3.0,Stokes Tract,2172,16117,1940,,391,,Sold,,,http://www.redfin.com/TN/Nashville/2709-Wortham-Ave-37215/home/108126911,REALTRACS,2241850,N,Y,36.1229151,-86.8172682
PAST SALE,January-29-2021,Single Family Residential,21 Belcaro Cir,Nashville,TN,37215,620000,3,2.5,Burton Hills Village Of Fo,2210,7405,1986,,281,160,Sold,,,http://www.redfin.com/TN/Nashville/21-Belcaro-Cir-37215/home/108053945,REALTRACS,2204499,N,Y,36.0964727,-86.8190371
PAST SALE,February-4-2021,Single Family Residential,2345 Fernwood Dr,Nashville,TN,37216,434000,3,2.0,Dalewood,2180,21344,1951,,199,,Sold,,,http://www.redfin.com/TN/Nashville/2345-Fernwood-Dr-37216/home/108121919,REALTRACS,2212649,N,Y,36.2081177,-86.714108
PAST SALE,February-16-2021,Single Family Residential,2621A Carter Ave,Nashville,TN,37206,549000,4,3.0,Dugger Heights,2047,20473,2020,,268,,Sold,,,http://www.redfin.com/TN/Nashville/2621-Carter-Ave-37206/home/108063599,REALTRACS,2214963,N,Y,36.187866,-86.7108844
PAST SALE,December-2-2020,Single Family Residential,901 Rose Park Dr,Nashville,TN,37206,430000,4,2.0,Rose Estates,2050,20908,1965,,210,,Sold,,,http://www.redfin.com/TN/Nashville/901-Rose-Park-Dr-37206/home/108113525,REALTRACS,2201487,N,Y,36.188766,-86.7081718
PAST SALE,January-14-2021,Single Family Residential,3401 Timber Trl,Antioch,TN,37013,299900,4,3.5,The Country,2200,12196,1977,,136,,Sold,,,http://www.redfin.com/TN/Antioch/3401-Timber-Trail-Dr-37013/home/92290726,REALTRACS,2203235,N,Y,36.0796412,-86.6044229
PAST SALE,February-11-2021,Single Family Residential,2901 Nautilus Dr,Nashville,TN,37217,260000,4,1.5,Harbour Town Village,2044,16988,1978,,127,,Sold,,,http://www.redfin.com/TN/Nashville/2901-Nautilus-Dr-37217/home/108130963,REALTRACS,2202408,N,Y,36.0838286,-86.6060267
PAST SALE,,Single Family Residential,1628 Brockton Ln,Nashville,TN,37221,365000,3,2.5,,2180,9148,2018,,167,,,,,http://www.redfin.com/TN/Nashville/1628-Brockton-Ln-37221/home/112482644,,,N,Y,36.0762682,-86.9864818
PAST SALE,December-31-2020,Condo/Co-op,2604 Neldia Ct Unit B,Nashville,TN,37206,439000,3,2.5,Neldia Heights,2092,6969,2020,,210,,Sold,,,http://www.redfin.com/TN/Nashville/2604-Neldia-Ct-37206/unit-B/home/173659697,REALTRACS,2205914,N,Y,36.1972884,-86.7379027
PAST SALE,,Multi-Family (2-4 Unit),974 Strouse Ave #1,Nashville,TN,37206,450000,4,4.0,,2160,10890,1985,,208,,,,,http://www.redfin.com/TN/Nashville/974-Strouse-Ave-37206/unit-1/home/108079258,,,N,Y,36.1940383,-86.7460088
PAST SALE,December-30-2020,Single Family Residential,1428 Greenwood Ave,Nashville,TN,37206,632500,4,3.0,Sharpe & Horns Elwood Plac,2174,9583,1930,,291,,Sold,,,http://www.redfin.com/TN/Nashville/1428-Greenwood-Ave-37206/home/107996188,REALTRACS,2207291,N,Y,36.1894966,-86.739614
PAST SALE,April-29-2021,Single Family Residential,1008 Gillock St,Nashville,TN,37216,465000,4,3.0,East Nashville,2147,8712,1938,,217,,Sold,,,http://www.redfin.com/TN/Nashville/1008-Gillock-St-37216/home/88445031,REALTRACS,2234202,N,Y,36.2142323,-86.7317553
PAST SALE,December-21-2020,Single Family Residential,3308 Quail Run Ct,Nashville,TN,37214,349900,4,3.0,Trailwood,2108,11325,1987,,166,,Sold,,,http://www.redfin.com/TN/Nashville/3308-Quail-Run-Ct-37214/home/68796317,REALTRACS,2202890,N,Y,36.1364595,-86.6347662
PAST SALE,December-15-2020,Single Family Residential,3413 Harborwood Cir,Nashville,TN,37214,320000,3,2.5,Harborview,2036,7405,1994,,157,63,Sold,,,http://www.redfin.com/TN/Nashville/3413-Harborwood-Cir-37214/home/107985406,REALTRACS,2201435,N,Y,36.1338926,-86.6368
PAST SALE,February-1-2021,Single Family Residential,888 Carter St,Nashville,TN,37206,408000,3,2.5,East Nashville,2160,10890,2021,,189,,Sold,,,http://www.redfin.com/TN/Nashville/888-Carter-St-37206/home/108001635,REALTRACS,2225812,N,Y,36.189558,-86.754936
PAST SALE,December-20-2020,Single Family Residential,1511 Jones Ave,Nashville,TN,37207,372000,4,2.5,Victory Heights,2130,18295,1945,,175,,Sold,,,http://www.redfin.com/TN/Nashville/1511-Jones-Ave-37207/home/108031621,REALTRACS,2190099,N,Y,36.200334,-86.7581162
PAST SALE,February-25-2021,Single Family Residential,1128 Mcferrin Ave,Nashville,TN,37206,408000,4,2.5,Thornby Place,2112,6969,2020,,193,,Sold,,,http://www.redfin.com/TN/Nashville/1128-Mcferrin-Ave-37206/unit-A/home/108084641,REALTRACS,2181378,N,Y,36.19101,-86.753976
PAST SALE,May-7-2021,Multi-Family (2-4 Unit),813 N 2nd St,Nashville,TN,37207,370000,5,3.0,Dr V S Lindsley,2059,,1965,,180,,Sold,,,http://www.redfin.com/TN/Nashville/813-N-2nd-St-37207/unit-A/home/108066295,REALTRACS,2236505,N,Y,36.18512,-86.770758
PAST SALE,April-9-2021,Single Family Residential,4110 Westlawn Dr,Nashville,TN,37209,600000,4,2.0,Sylvan Park,2111,15681,1935,,284,,Sold,,,http://www.redfin.com/TN/Nashville/4110-Westlawn-Dr-37209/home/108035513,REALTRACS,2237863,N,Y,36.1396265,-86.8367604
PAST SALE,January-18-2021,Condo/Co-op,2168 Rock City St Unit B,Nashville,TN,37216,442000,3,3.0,Inglewood,2055,6969,2020,,215,,Sold,,,http://www.redfin.com/TN/Nashville/2168-Rock-City-St-37216/unit-B/home/173585970,REALTRACS,2202997,N,Y,36.200059,-86.728136
PAST SALE,January-13-2021,Condo/Co-op,2168 Rock City St Unit A,Nashville,TN,37216,442000,3,3.0,East Nashville,2055,6969,2020,,215,,Sold,,,http://www.redfin.com/TN/Nashville/2168-Rock-City-St-37216/unit-A/home/173805388,REALTRACS,2202996,N,Y,36.200059,-86.728136
PAST SALE,February-26-2021,Single Family Residential,2437 Branch St,Nashville,TN,37216,625000,3,3.5,City,2228,11761,1938,,281,,Sold,,,http://www.redfin.com/TN/Nashville/2437-Branch-St-37216/home/70530944,REALTRACS,2218677,N,Y,36.2031249,-86.7251531
PAST SALE,,Single Family Residential,4732 Timberhill Dr,Nashville,TN,37211,271000,3,2.0,,2025,15682,1963,,134,,,,,http://www.redfin.com/TN/Nashville/4732-Timberhill-Dr-37211/home/107987096,,,N,Y,36.0820269,-86.7553668
PAST SALE,November-19-2020,Single Family Residential,624 Elaine Dr,Nashville,TN,37211,307000,3,1.5,Caldwell Hall,2053,11325,1962,,150,,Sold,,,http://www.redfin.com/TN/Nashville/624-Elaine-Dr-37211/home/108133611,REALTRACS,2203262,N,Y,36.0836391,-86.7522245
PAST SALE,March-19-2021,Single Family Residential,311 Antioch Pike,Nashville,TN,37211,489000,3,2.5,Woodbine,2094,7840,2010,,234,,Sold,,,http://www.redfin.com/TN/Nashville/311-Antioch-Pike-37211/home/108054002,REALTRACS,2226185,N,Y,36.1014158,-86.7382388
PAST SALE,March-1-2021,Single Family Residential,2836 Desplane Dr,Nashville,TN,37217,260000,4,2.0,Edge-O-Lake Estates,2125,11761,1973,,122,,Sold,,,http://www.redfin.com/TN/Nashville/2836-Desplane-Dr-37217/home/107988211,REALTRACS,2220019,N,Y,36.0773602,-86.6273909
PAST SALE,December-11-2020,Single Family Residential,5889 Woodlands Ave,Nashville,TN,37211,329000,3,2.5,The Woodlands,2103,6969,1989,,156,25,Sold,,,http://www.redfin.com/TN/Nashville/5889-Woodlands-Ave-37211/home/108137107,REALTRACS,2199688,N,Y,36.0370811,-86.7238561
PAST SALE,December-28-2020,Single Family Residential,1236 Crestfield Dr,Nashville,TN,37211,350000,3,2.5,Bradford Hills,2100,7405,1992,,167,15,Sold,,,http://www.redfin.com/TN/Nashville/1236-Crestfield-Dr-37211/home/60819547,REALTRACS,2206422,N,Y,36.0215776,-86.721304
PAST SALE,February-12-2021,Single Family Residential,1101 Quaise Moor W,Antioch,TN,37013,295000,3,2.0,Somerset,2038,8712,1993,,145,,Sold,,,http://www.redfin.com/TN/Antioch/1101-Quaise-Moor-E-37013/home/108099379,REALTRACS,2207026,N,Y,36.0715376,-86.5980414
PAST SALE,November-23-2020,Single Family Residential,3424 Daisy Trl,Antioch,TN,37013,275000,3,2.5,The Country,2066,10018,1985,,133,,Sold,,,http://www.redfin.com/TN/Antioch/3424-Daisy-Trl-37013/home/108008834,REALTRACS,2199924,N,Y,36.0769923,-86.5992655
PAST SALE,February-21-2021,Single Family Residential,621 Huntington Pkwy,Nashville,TN,37211,328000,3,2.0,Huntington Park,2075,10890,1970,,158,,Sold,,,http://www.redfin.com/TN/Nashville/621-Huntington-Pkwy-37211/home/108115786,REALTRACS,2204735,N,Y,36.0481994,-86.7331307
PAST SALE,February-8-2021,Single Family Residential,6109 Blue Hole Ct,Antioch,TN,37013,345000,4,2.5,Blue Hole Pointe,2146,7405,2007,,161,20,Sold,,,http://www.redfin.com/TN/Antioch/6109-Blue-Hole-Ct-37013/home/60802764,REALTRACS,2218202,N,Y,36.0340465,-86.67667
PAST SALE,February-12-2021,Single Family Residential,5425 Reagan Run,Antioch,TN,37013,299000,3,2.0,Honey Brook,2067,6534,1992,,145,2,Sold,,,http://www.redfin.com/TN/Antioch/5425-Reagan-Run-37013/home/60782277,REALTRACS,2228726,N,Y,36.0371191,-86.6757258
PAST SALE,February-22-2021,Single Family Residential,345 Lynn Dr,Nashville,TN,37211,440000,3,2.0,Caldwell Hall,2212,10890,1961,,199,,Sold,,,http://www.redfin.com/TN/Nashville/345-Lynn-Dr-37211/home/60872229,REALTRACS,2218235,N,Y,36.0810234,-86.7464893
PAST SALE,February-1-2021,Single Family Residential,2803 Woodlawn Dr,Nashville,TN,37215,730000,3,2.5,Vanderbilt / Green Hills,2164,6969,1932,,337,,Sold,,,http://www.redfin.com/TN/Nashville/2803-Woodlawn-Dr-37212/home/87821486,REALTRACS,2208129,N,Y,36.1258952,-86.8129137
PAST SALE,January-29-2021,Single Family Residential,2106 Ashwood Ave,Nashville,TN,37212,525000,3,2.0,Jacob/Manley,2106,7405,1925,,249,,Sold,,,http://www.redfin.com/TN/Nashville/2106-Ashwood-Ave-37212/home/87805185,REALTRACS,2218170,N,Y,36.129619,-86.803324
PAST SALE,,Single Family Residential,2602 Sunset Pl,Nashville,TN,37212,677500,4,2.0,,2076,11761,1928,,326,,,,,http://www.redfin.com/TN/Nashville/2602-Sunset-Pl-37212/home/108067765,,,N,Y,36.1295029,-86.8098536
PAST SALE,February-4-2021,Single Family Residential,1708 Primrose Ave,Nashville,TN,37212,774900,3,2.0,Belmont Terrace,2130,7840,1930,,364,,Sold,,,http://www.redfin.com/TN/Nashville/1708-Primrose-Ave-37212/home/107981983,REALTRACS,2193391,N,Y,36.120489,-86.7977681
PAST SALE,,Single Family Residential,6877 Bridgewater Dr,Nashville,TN,37221,345000,3,2.0,,2064,8276,2003,,167,,,,,http://www.redfin.com/TN/Nashville/6877-Bridgewater-Dr-37221/home/60861642,,,N,Y,36.0840878,-87.004883
PAST SALE,March-19-2021,Single Family Residential,7140 Riverfront Dr,Nashville,TN,37221,380000,3,2.0,Riverwalk,2090,7405,2005,,182,70,Sold,,,http://www.redfin.com/TN/Nashville/7140-Riverfront-Dr-37221/home/108045062,REALTRACS,2230488,N,Y,36.0927827,-87.0065553
PAST SALE,April-16-2021,Single Family Residential,7712 Riverview Bend Dr,Nashville,TN,37221,425000,3,2.5,Riverwalk,2226,10454,2006,,191,70,Sold,,,http://www.redfin.com/TN/Nashville/7712-Riverview-Bend-Dr-37221/home/105478922,REALTRACS,2237085,N,Y,36.0927717,-87.0017763
PAST SALE,March-16-2021,Single Family Residential,1501 Bellafonte Ct,Nashville,TN,37221,451000,3,2.5,Traceside,2165,10890,2001,,208,73,Sold,,,http://www.redfin.com/TN/Nashville/1501-Bellafonte-Ct-37221/home/174445156,REALTRACS,2229015,N,Y,36.032351,-86.9661224
PAST SALE,December-15-2020,Single Family Residential,117 Lafayette Ct,Nashville,TN,37205,785000,4,3.5,Courts Of Belle Meade,2240,10890,1963,,350,,Sold,,,http://www.redfin.com/TN/Nashville/117-Lafayette-Ct-37205/home/68832729,REALTRACS,2206536,N,Y,36.1018147,-86.8632206
PAST SALE,,Single Family Residential,1113 Batey Dr,Nashville,TN,37204,584900,4,2.0,,2186,20038,1954,,268,,,,,http://www.redfin.com/TN/Nashville/1113-Batey-Dr-37204/home/87829767,,,N,Y,36.0922561,-86.7978346
PAST SALE,November-23-2020,Single Family Residential,2241B Grandview Ave,Nashville,TN,37211,444000,3,2.5,Melrose,2207,7405,2020,,201,,Sold,,,http://www.redfin.com/TN/Nashville/2241-Grandview-Ave-37211/unit-A/home/107986472,REALTRACS,2162667,N,Y,36.1231122,-86.7529021
PAST SALE,March-26-2021,Single Family Residential,311 Tampa Dr,Nashville,TN,37211,268000,5,2.0,Kenilworth Estates,2250,10018,1963,,119,,Sold,,,http://www.redfin.com/TN/Nashville/311-Tampa-Dr-37211/home/108011122,REALTRACS,2219160,N,Y,36.0859614,-86.7143439
PAST SALE,March-26-2021,Single Family Residential,4805 Linbar Dr,Nashville,TN,37211,350000,5,2.0,Kenilworth Estates,2000,11761,1962,,175,,Sold,,,http://www.redfin.com/TN/Nashville/4805-Linbar-Dr-37211/home/87806931,REALTRACS,2224791,N,Y,36.0863976,-86.7070316
PAST SALE,April-5-2021,Single Family Residential,3688 Tampa Dr,Nashville,TN,37211,374900,3,2.0,Hillbrook,2248,15681,1967,,167,,Sold,,,http://www.redfin.com/TN/Nashville/3688-Tampa-Dr-37211/home/108007053,REALTRACS,2233157,N,Y,36.0802969,-86.7088794
PAST SALE,,Single Family Residential,4004 Scotwood Dr,Nashville,TN,37211,225000,3,2.0,,2050,10019,1977,,110,,,,,http://www.redfin.com/TN/Nashville/4004-Scotwood-Dr-37211/home/108129027,,,N,Y,36.0899424,-86.7110024
PAST SALE,February-26-2021,Single Family Residential,2145 River Overlook Dr,Hermitage,TN,37076,347750,3,2.0,Villages Of Riverwood,2018,7840,2014,,172,70,Sold,,,http://www.redfin.com/TN/Hermitage/2145-River-Overlook-Dr-37076/home/60819729,REALTRACS,2205912,N,Y,36.164543,-86.6237155
PAST SALE,December-1-2020,Single Family Residential,1233 Riverbirch Way,Hermitage,TN,37076,349495,3,2.0,Villages Of Riverwood,2016,9583,2012,,173,70,Sold,,,http://www.redfin.com/TN/Hermitage/1233-Riverbirch-Way-37076/home/68796845,REALTRACS,2183490,N,Y,36.1666973,-86.6199081
PAST SALE,April-29-2021,Single Family Residential,3109 Harborwood Dr,Nashville,TN,37214,366100,3,2.5,Harborview,2174,7840,1991,,168,63,Sold,,,http://www.redfin.com/TN/Nashville/3109-Harborwood-Dr-37214/home/108091867,REALTRACS,2237596,N,Y,36.132306,-86.630158
PAST SALE,,Single Family Residential,7036 Wild Iris Dr,Nashville,TN,37221,296000,3,3.0,,2179,10454,1999,,136,,,,,http://www.redfin.com/TN/Nashville/7036-Wild-Iris-Dr-37221/home/108049162,,,N,Y,36.0645022,-86.92659
PAST SALE,January-5-2021,Single Family Residential,7220 Birch Bark Dr,Nashville,TN,37221,377500,3,2.0,Valley West,2038,16988,1978,,185,,Sold,,,http://www.redfin.com/TN/Nashville/7220-Birch-Bark-Dr-37221/home/108006978,REALTRACS,2210758,N,Y,36.0649389,-86.9312278
PAST SALE,,Single Family Residential,7371 Bridle Dr,Nashville,TN,37221,397000,3,3.0,,2100,20909,1973,,189,,,,,http://www.redfin.com/TN/Nashville/7371-Bridle-Dr-37221/home/87823290,,,N,Y,36.0762651,-86.9325007
PAST SALE,February-26-2021,Single Family Residential,716 23rd St,Nashville,TN,37209,480500,3,2.5,Townhomes Of 716 23rd Stre,2064,6969,2017,,233,,Sold,,,http://www.redfin.com/TN/Nashville/716-23rd-St-37209/home/144496537,REALTRACS,2214256,N,Y,36.1636349,-86.8713722
PAST SALE,April-2-2021,Single Family Residential,6344B Columbia Ave,Nashville,TN,37209,569500,3,2.5,Crolywood,2163,8712,2021,,263,,Sold,,,http://www.redfin.com/TN/Nashville/6344-Columbia-Ave-37209/unit-A/home/60783711,REALTRACS,2241024,N,Y,36.1521672,-86.8716954
PAST SALE,April-1-2021,Single Family Residential,626 Eastboro Dr,Nashville,TN,37209,539900,3,2.5,Charlotte Park,2034,8276,2021,,265,,Sold,,,http://www.redfin.com/TN/Nashville/626-Eastboro-Dr-37209/home/174241036,REALTRACS,2221984,N,Y,36.1549787,-86.8674934
PAST SALE,March-8-2021,Single Family Residential,611A River Rouge Dr,Nashville,TN,37209,507000,3,2.5,Charlotte Park,2066,11325,2020,,245,,Sold,,,http://www.redfin.com/TN/Nashville/611-River-Rouge-Dr-37209/unit-B/home/173704688,REALTRACS,2212789,N,Y,36.1505665,-86.8866042
PAST SALE,February-12-2021,Single Family Residential,1833 Hillpoint Cir,Antioch,TN,37013,300000,4,2.5,Harvest Grove,2128,6969,2015,,141,13,Sold,,,http://www.redfin.com/TN/Antioch/1833-Hillpoint-Cir-37013/home/99255049,REALTRACS,2209146,N,Y,36.0535763,-86.6039542
PAST SALE,March-25-2021,Single Family Residential,5021 Singing Hills Dr,Antioch,TN,37013,308000,3,2.5,Hickory Woods Estates,2150,7405,1998,,143,25,Sold,,,http://www.redfin.com/TN/Antioch/5021-Singing-Hills-Dr-37013/home/107974463,REALTRACS,2225724,N,Y,36.033491,-86.582255
PAST SALE,March-26-2021,Single Family Residential,137 Took Dr,Antioch,TN,37013,324900,3,2.5,Berkeley Hall,2250,7405,2008,,144,25,Sold,,,http://www.redfin.com/TN/Antioch/137-Took-Dr-37013/home/108116868,REALTRACS,2211395,N,Y,36.0583939,-86.6501473
PAST SALE,April-2-2021,Single Family Residential,809 Bridge Creek Lane Lot 159,Antioch,TN,37013,327900,4,2.5,Cambridge Forest,2120,6969,2021,,155,14,Sold,,,http://www.redfin.com/TN/Nashville/809-Brittany-Park-Ln-37013/home/172747762,REALTRACS,2198725,N,Y,36.07044501,-86.65390906
PAST SALE,December-29-2020,Single Family Residential,1504 Mock Orange Cir,Nashville,TN,37217,280000,3,2.5,Ransom Place,2200,7840,1992,,127,,Sold,,,http://www.redfin.com/TN/Nashville/1504-Mock-Orange-Cir-37217/home/108006081,REALTRACS,2207274,N,Y,36.0868229,-86.6532961
PAST SALE,,Single Family Residential,2592 Hessey Pass,Mt. Juliet,TN,37122,365000,3,2.5,,2035,7841,2015,,179,,,,,http://www.redfin.com/TN/Mt-Juliet/2592-Hessey-Pass-37122/home/80157306,,,N,Y,36.142708,-86.5659353
PAST SALE,November-19-2020,Single Family Residential,219 Bonnabrook Dr,Hermitage,TN,37076,312000,4,2.5,Hermitage Hills,2225,12632,1962,,140,,Sold,,,http://www.redfin.com/TN/Hermitage/219-Bonnabrook-Dr-37076/home/108122466,REALTRACS,2176951,N,Y,36.1963592,-86.6321556
PAST SALE,April-20-2021,Single Family Residential,6044 Panama Dr,Hermitage,TN,37076,289900,4,2.0,Dodson Heights,2000,10890,1969,,145,,Sold,,,http://www.redfin.com/TN/Hermitage/6044-Panama-Dr-37076/home/78761693,REALTRACS,2232538,N,Y,36.1895675,-86.619593
PAST SALE,April-30-2021,Single Family Residential,146 Lake Park Dr,Nashville,TN,37211,370000,4,2.0,Southlake,2083,19602,1967,,178,,Sold,,,http://www.redfin.com/TN/Nashville/146-Lake-Park-Dr-37211/home/68803434,REALTRACS,2186415,N,Y,36.1054225,-86.7264893
PAST SALE,April-9-2021,Single Family Residential,1544 Sunbeam Dr,Antioch,TN,37013,340000,3,2.5,Sunset Hills,2080,7405,2014,,163,20,Sold,,,http://www.redfin.com/TN/Antioch/1544-Sunbeam-Dr-37013/home/60829347,REALTRACS,2234430,N,Y,36.0202953,-86.6706505
PAST SALE,April-30-2021,Single Family Residential,935 Springlane Dr,Nolensville,TN,37135,465000,3,2.0,Burkitt Springs,2104,11761,2018,,221,90,Sold,,,http://www.redfin.com/TN/Nolensville/935-Springlane-Dr-37135/home/144499485,REALTRACS,2230551,N,Y,35.9885636,-86.6689641
PAST SALE,February-26-2021,Single Family Residential,5101 Hilson Rd,Nashville,TN,37211,439000,4,2.5,McMurray Woods,2187,18730,1961,,201,,Sold,,,http://www.redfin.com/TN/Nashville/5101-Hilson-Rd-37211/home/60827782,REALTRACS,2219645,N,Y,36.0546605,-86.7303799
PAST SALE,February-25-2021,Single Family Residential,553 Roxanne Dr,Antioch,TN,37013,278100,3,2.0,Brook View Estates,2078,12632,1974,,134,,Sold,,,http://www.redfin.com/TN/Antioch/553-Roxanne-Dr-37013/home/107976129,REALTRACS,2219905,N,Y,36.0468101,-86.6967736
PAST SALE,,Single Family Residential,327 Wauford Dr,Nashville,TN,37211,360000,3,2.0,,2137,13068,1960,,168,,,,,http://www.redfin.com/TN/Nashville/327-Wauford-Dr-37211/home/108040001,,,N,Y,36.075213,-86.7449964
PAST SALE,November-12-2020,Single Family Residential,3404 Turfway Ln,Antioch,TN,37013,375000,4,2.5,Barnes Bend Estates,2210,6969,2013,,170,29,Sold,,,http://www.redfin.com/TN/Antioch/3404-Turfway-Ln-37013/home/68838137,REALTRACS,2183080,N,Y,36.0233709,-86.697544
PAST SALE,March-8-2021,Single Family Residential,165 Claybrook Ln,Antioch,TN,37013,336000,3,2.5,Mill Run,2126,10454,2003,,158,23,Sold,,,http://www.redfin.com/TN/Antioch/165-Claybrook-Ln-37013/home/108043255,REALTRACS,2228114,N,Y,36.0173704,-86.6838885
PAST SALE,November-25-2020,Single Family Residential,6944 Sunnywood Dr,Nashville,TN,37211,377500,3,2.0,Lenox Village,2223,7405,2003,,170,78,Sold,,,http://www.redfin.com/TN/Nashville/6944-Sunnywood-Dr-37211/home/87801831,REALTRACS,2195838,N,Y,36.0176749,-86.7019752
PAST SALE,January-15-2021,Single Family Residential,106 Osprey Ct,LA VERGNE,TN,37086,334900,3,2.5,Brookside Sec 2,2000,14374,2020,,167,17,Sold,,,http://www.redfin.com/TN/LA-VERGNE/106-OSPREY-CT-37086/home/148179143,REALTRACS,2197769,N,Y,35.98648617,-86.60741911
PAST SALE,April-30-2021,Single Family Residential,405 Peak Top Trl,LA VERGNE,TN,37086,357400,3,2.5,Brookside Sec 2,2134,13503,2021,,167,17,Sold,,,http://www.redfin.com/TN/La-Vergne/405-Peak-Top-Trl-37086/home/148179120,REALTRACS,2248343,N,Y,35.9863138,-86.6090356
PAST SALE,December-30-2020,Single Family Residential,5616 Murphywood Xing,Antioch,TN,37013,300000,3,2.5,Asheford Crossing,2004,11761,1999,,150,13,Sold,,,http://www.redfin.com/TN/Antioch/5616-Murphywood-Crosing-37013/home/108028896,REALTRACS,2205863,N,Y,36.039446,-86.6251462
PAST SALE,April-23-2021,Single Family Residential,5544 Murphywood Xing,Antioch,TN,37013,331500,3,2.5,Asheford Crossing,2066,14374,2000,,160,12,Sold,,,http://www.redfin.com/TN/Antioch/5544-Murphywood-Crosing-37013/home/60857074,REALTRACS,2234980,N,Y,36.0377652,-86.6242404
PAST SALE,April-30-2021,Single Family Residential,5921 Belle Oaks Pl,Antioch,TN,37013,327000,3,2.5,Belle Oaks,2184,10890,1992,,150,,Sold,,,http://www.redfin.com/TN/Antioch/5921-Belle-Oaks-Pl-37013/home/108111445,REALTRACS,2240906,N,Y,36.0693847,-86.60029
PAST SALE,,Single Family Residential,4728 Rockland Trl,Antioch,TN,37013,358714,4,3.0,,2228,6534,2016,,161,,,,,http://www.redfin.com/TN/Antioch/4728-Rockland-Trl-37013/home/60909566,,,N,Y,36.032653,-86.585424
PAST SALE,December-21-2020,Single Family Residential,8513 Gainsford Ln,Nolensville,TN,37135,401900,4,3.0,Burkitt Place,2229,8276,2009,,180,89,Sold,,,http://www.redfin.com/TN/Nolensville/8513-Gainsford-Ln-37135/home/108045805,REALTRACS,2192655,N,Y,35.9880396,-86.6744736
PAST SALE,March-17-2021,Single Family Residential,4264 October Woods Dr,Antioch,TN,37013,335200,3,2.0,Apple Valley,2031,9147,2011,,165,11,Sold,,,http://www.redfin.com/TN/Antioch/4264-October-Woods-Dr-37013/home/68772371,REALTRACS,2223187,N,Y,36.0064702,-86.6331151
PAST SALE,,Single Family Residential,7481 Maggie Dr,Antioch,TN,37013,275000,3,2.5,,1898,6534,2004,,145,,,,,http://www.redfin.com/TN/Antioch/7481-Maggie-Dr-37013/home/78711999,,,N,Y,36.0099724,-86.655146
PAST SALE,February-25-2021,Single Family Residential,329 Mayfield Sta,Brentwood,TN,37027,450000,3,2.5,Cottonport Plantation,2167,17424,1989,,208,59,Sold,,,http://www.redfin.com/TN/Brentwood/329-Mayfield-Sta-37027/home/60855929,REALTRACS,2219971,N,Y,36.0306421,-86.7509675
PAST SALE,January-12-2021,Single Family Residential,612 Copperfield Ct,Brentwood,TN,37027,580000,4,2.5,Copperfield,2245,9583,1990,,258,65,Sold,,,http://www.redfin.com/TN/Brentwood/612-Copperfield-Ct-37027/home/108043625,REALTRACS,2213474,N,Y,36.0326076,-86.7509458
PAST SALE,January-6-2021,Single Family Residential,7417 Stecoah St,Antioch,TN,37013,359000,3,2.5,Indian Creek,2204,6534,2007,,163,17,Sold,,,http://www.redfin.com/TN/Antioch/7417-Stecoah-St-37013/home/60855631,REALTRACS,2211297,N,Y,36.0105811,-86.6840458
PAST SALE,December-15-2020,Single Family Residential,488 Red Sunset Ct,Brentwood,TN,37027,425425,3,2.0,The Heights at Autumn Oaks,2066,,2020,,206,32,Sold,,,http://www.redfin.com/TN/Brentwood/488-Red-Sunset-Ct-37013/home/172132782,REALTRACS,2155829,N,Y,36.0072436,-86.696779
PAST SALE,April-23-2021,Single Family Residential,4154 Farmview Dr,Nashville,TN,37218,305000,5,3.0,Buena Vista Estates,2150,12196,1972,,142,,Sold,,,http://www.redfin.com/TN/Nashville/4154-Farmview-Dr-37218/home/85689613,REALTRACS,2238919,N,Y,36.2254704,-86.8292878
PAST SALE,April-29-2021,Condo/Co-op,1903A 11th Ave N,Nashville,TN,37208,478697,4,3.0,Buchanan Arts District,2022,,2020,,237,,Sold,,,http://www.redfin.com/TN/Nashville/1903-11th-Ave-N-37208/home/108052093,REALTRACS,2219000,N,Y,36.1827561,-86.8056946
PAST SALE,January-26-2021,Single Family Residential,1020 Orange Blossom Ln,Hermitage,TN,37076,388000,3,2.0,Magnolia Farms,2085,7840,2019,,186,44,Sold,,,http://www.redfin.com/TN/Nashville/Orange-Blossom-Ln-37076/home/170540222,REALTRACS,2202979,N,Y,36.172003,-86.623983
PAST SALE,January-5-2021,Single Family Residential,3461 Parkwood Ct,Hermitage,TN,37076,369923,3,3.0,Fleetwood,2072,7840,1990,,179,27,Sold,,,http://www.redfin.com/TN/Hermitage/3461-Parkwood-Ct-37076/home/108036539,REALTRACS,2196577,N,Y,36.1741339,-86.6191598
PAST SALE,January-28-2021,Single Family Residential,4913 John Hager Rd,Hermitage,TN,37076,330000,3,2.5,The Peninsula,2145,8276,1996,,154,11,Sold,,,http://www.redfin.com/TN/Hermitage/4913-John-Hager-Rd-37076/home/108089995,REALTRACS,2214635,N,Y,36.1522287,-86.591206
PAST SALE,December-18-2020,Single Family Residential,1249 Riverbirch Way,Hermitage,TN,37076,360000,3,2.0,Villages Of Riverwood,2016,8276,2012,,179,70,Sold,,,http://www.redfin.com/TN/Hermitage/1249-Riverbirch-Way-37076/home/68814159,REALTRACS,2199777,N,Y,36.1661102,-86.619812
PAST SALE,February-24-2021,Single Family Residential,814 Bettie Dr,Old Hickory,TN,37138,280000,5,2.0,The Knoll,2000,9583,1960,,140,,Sold,,,http://www.redfin.com/TN/Old-Hickory/814-Bettie-Dr-37138/home/60794268,REALTRACS,2210262,N,Y,36.2639789,-86.6655747
PAST SALE,February-10-2021,Single Family Residential,1235 Apache Ln,Madison,TN,37115,235000,3,2.0,Sequoia Valley,2064,16117,1969,,114,,Sold,,,http://www.redfin.com/TN/Madison/1235-Apache-Ln-37115/home/68779287,REALTRACS,2214148,N,Y,36.2450116,-86.6715161
PAST SALE,,Single Family Residential,1204 Riverside Dr,Old Hickory,TN,37138,409000,4,1.0,,2284,12197,1930,,179,,,,,http://www.redfin.com/TN/Old-Hickory/1204-Riverside-Dr-37138/home/103917006,,,N,Y,36.2577342,-86.6434947
PAST SALE,May-11-2021,Multi-Family (2-4 Unit),1104 Fowler St,Old Hickory,TN,37138,250000,6,2.0,Rolling Green,2050,20037,1928,,122,,Sold,,,http://www.redfin.com/TN/Old-Hickory/1104-Fowler-St-37138/home/108073366,REALTRACS,2247287,N,Y,36.2594063,-86.6550103
PAST SALE,,Single Family Residential,1312 Riverside Dr,Nashville,TN,37206,624900,4,3.5,,2032,7405,1930,,308,,,,,http://www.redfin.com/TN/Nashville/1312-Riverside-Dr-37206/home/107976989,,,N,Y,36.190149,-86.7266098
PAST SALE,February-16-2021,Single Family Residential,2422 Chapman Dr,Nashville,TN,37206,335000,3,1.0,Eastland Acres,2016,16988,1955,,166,,Sold,,,http://www.redfin.com/TN/Nashville/2422-Chapman-Dr-37206/home/108079475,REALTRACS,2221868,N,Y,36.1778171,-86.7214586
PAST SALE,April-29-2021,Single Family Residential,2807 Meadow Rose Dr,Nashville,TN,37206,517500,3,2.5,Meadow Rose Park,2000,,1956,,259,,Sold,,,http://www.redfin.com/TN/Nashville/2807-Meadow-Rose-Dr-37206/home/108121962,REALTRACS,2232460,N,Y,36.1849466,-86.7125749
PAST SALE,April-6-2021,Single Family Residential,809 Setliff Pl,Nashville,TN,37206,558500,3,2.0,Williams/Hunter,2153,7840,1930,,259,,Sold,,,http://www.redfin.com/TN/Nashville/809-Setliff-Pl-37206/home/68831558,REALTRACS,2233951,N,Y,36.1850392,-86.737728
PAST SALE,January-22-2021,Single Family Residential,839 Rose Park Dr,Nashville,TN,37206,395000,4,3.0,Rose Estates,2050,10890,1965,,193,,Sold,,,http://www.redfin.com/TN/Nashville/839-Rose-Park-Dr-37206/home/68790468,REALTRACS,2200851,N,Y,36.1877898,-86.7065598
PAST SALE,January-29-2021,Single Family Residential,2512 Meadowood Dr,Nashville,TN,37214,335000,3,1.5,McGavock Heights,2155,21780,1960,,155,,Sold,,,http://www.redfin.com/TN/Nashville/2512-Meadowood-Dr-37214/home/107984467,REALTRACS,2201728,N,Y,36.1880601,-86.6733259
PAST SALE,January-29-2021,Single Family Residential,2309 Ridgeland Dr,Nashville,TN,37214,315000,3,2.5,Sunset View,2073,14374,1958,,152,,Sold,,,http://www.redfin.com/TN/Nashville/2309-Ridgeland-Dr-37214/home/108113278,REALTRACS,2196955,N,Y,36.2013001,-86.6848915
PAST SALE,,Single Family Residential,2026 Rosecliff Dr,Nashville,TN,37206,375000,3,2.0,,2100,11761,1952,,179,,,,,http://www.redfin.com/TN/Nashville/2026-Rosecliff-Dr-37206/home/108060210,,,N,Y,36.1909079,-86.7136756
PAST SALE,December-29-2020,Single Family Residential,1924 Valley Park Dr,Nashville,TN,37216,405000,3,2.0,Burchwood Gardens,2200,11761,1960,,184,,Sold,,,http://www.redfin.com/TN/Nashville/1924-Valley-Park-Dr-37216/home/108077187,REALTRACS,2209732,N,Y,36.1964298,-86.7111203
PAST SALE,,Single Family Residential,8144 Settlers Way,Nashville,TN,37221,385000,3,2.5,,2069,9583,2002,,186,,,,,http://www.redfin.com/TN/Nashville/8144-Settlers-Way-37221/home/108103472,,,N,Y,36.0853134,-87.0115581
PAST SALE,January-8-2021,Single Family Residential,7632 Staffordshire Dr,Nashville,TN,37221,385000,3,2.5,Sheffield On The Harpeth,2118,11325,1987,,182,74,Sold,,,http://www.redfin.com/TN/Nashville/7632-Staffordshire-Dr-37221/home/108005106,REALTRACS,2208430,N,Y,36.0646889,-86.9721354
PAST SALE,February-25-2021,Single Family Residential,809 Bay Cove Ct,Nashville,TN,37221,399000,3,2.5,Rolling River Estates,2235,21344,1981,,179,,Sold,,,http://www.redfin.com/TN/Nashville/809-Bay-Cove-Ct-37221/home/68848325,REALTRACS,2221846,N,Y,36.0656445,-86.9615286
PAST SALE,,Multi-Family (2-4 Unit),1413 N 14th St,Nashville,TN,37206,360000,6,2.0,,2167,13068,1950,,166,,,,,http://www.redfin.com/TN/Nashville/1413-N-14th-St-37206/home/108083571,,,N,Y,36.1932027,-86.7410179
PAST SALE,December-1-2020,Condo/Co-op,1612A Douglas Ave,Nashville,TN,37206,525000,4,3.0,Dr E T Browns/Brownsville,2099,,2020,,250,,Sold,,,http://www.redfin.com/TN/Nashville/1612-Douglas-Ave-37206/home/107989802,REALTRACS,2189607,N,Y,36.1913956,-86.7346632
PAST SALE,February-22-2021,Single Family Residential,901 Douglas Ave,Nashville,TN,37206,474900,3,3.0,L M Ezell 12 Ac,2210,14374,1930,,215,,Sold,,,http://www.redfin.com/TN/Nashville/901-Douglas-Ave-37206/unit-A/home/108075134,REALTRACS,2202412,N,Y,36.193438,-86.750155
PAST SALE,March-1-2021,Single Family Residential,116 Creighton Ave,Nashville,TN,37206,620000,3,2.5,Creighton,2104,9147,2013,,295,,Sold,,,http://www.redfin.com/TN/Nashville/116-Creighton-Ave-37206/home/60771941,REALTRACS,2221694,N,Y,36.191026,-86.7304192
PAST SALE,February-25-2021,Single Family Residential,1418 Gartland Ave,Nashville,TN,37206,747000,5,4.0,Lindsley 29 Ac,2250,7405,1920,,332,,Sold,,,http://www.redfin.com/TN/Nashville/1418-Gartland-Ave-37206/home/107998014,REALTRACS,2226005,N,Y,36.1788448,-86.7438108
PAST SALE,March-24-2021,Single Family Residential,218A Treutland Ave,Nashville,TN,37207,613000,3,3.5,East Nashville,2213,,2020,,277,,Sold,,,http://www.redfin.com/TN/Nashville/218-Treutland-Ave-37207/unit-B/home/108003948,REALTRACS,2218985,N,Y,36.1799874,-86.77029
PAST SALE,February-26-2021,Single Family Residential,1111 Inglewood Dr,Nashville,TN,37216,485000,3,2.5,Inglewood Heights,2168,13939,1950,,224,,Sold,,,http://www.redfin.com/TN/Nashville/1111-Inglewood-Dr-37216/home/60743913,REALTRACS,2221734,N,Y,36.2324716,-86.7235417
