SALE TYPE,SOLD DATE,PROPERTY TYPE,ADDRESS,CITY,STATE OR PROVINCE,ZIP OR POSTAL CODE,PRICE,BEDS,BATHS,LOCATION,SQUARE FEET,LOT SIZE,YEAR BUILT,DAYS ON MARKET,$/SQUARE FEET,HOA/MONTH,STATUS,NEXT OPEN HOUSE START TIME,NEXT OPEN HOUSE END TIME,URL (SEE http://www.redfin.com/buy-a-home/comparative-market-analysis FOR INFO ON PRICING),SOURCE,MLS#,FAVORITE,INTERESTED,LATITUDE,LONGITUDE
PAST SALE,November-18-2020,Townhouse,2715 Smith Springs Rd,Nashville,TN,37217,225000,3,2.0,Spring View Townhomes,2000,1306,1984,,113,190,Sold,,,http://www.redfin.com/TN/Nashville/2715-Smith-Springs-Rd-37217/home/60650982,REALTRACS,2193727,N,Y,36.0894733,-86.624853
PAST SALE,December-18-2020,Townhouse,1103 Woodbury Falls Ct,Nashville,TN,37221,298900,3,3.0,Woodbury,1977,871,2010,,151,150,Sold,,,http://www.redfin.com/TN/Nashville/1103-Woodbury-Falls-Ct-37221/home/108046140,REALTRACS,2205668,N,Y,36.088537,-86.921953
PAST SALE,April-7-2021,Condo/Co-op,104 Colbert Way,Nashville,TN,37206,401600,3,2.5,Joule,1770,871,2017,,227,148,Sold,,,http://www.redfin.com/TN/Nashville/104-Colbert-Way-37206/home/144496410,REALTRACS,2230983,N,Y,36.1908295,-86.7101807
PAST SALE,February-2-2021,Single Family Residential,221 Sterling Point Cir,Nashville,TN,37209,432600,3,3.5,Charlotte Park,1990,871,2020,,217,165,Sold,,,http://www.redfin.com/TN/Nashville/Sterling-Point-Cir-37209/home/148402049,REALTRACS,2171685,N,Y,36.157735,-86.864301
PAST SALE,February-3-2021,Single Family Residential,1402 63rd Ave N,Nashville,TN,37209,439900,3,2.5,The Nations,1800,871,2016,,244,,Sold,,,http://www.redfin.com/TN/Nashville/1402-63rd-Ave-N-37209/home/107954925,REALTRACS,2212250,N,Y,36.16718,-86.8636548
PAST SALE,,Condo/Co-op,643 Vernon Ave #3,Nashville,TN,37209,415000,3,3.5,,2044,,2019,,203,,,,,http://www.redfin.com/TN/Nashville/643-Vernon-Ave-37209/unit-3/home/148399526,,,N,Y,36.159725,-86.868483
PAST SALE,April-7-2021,Single Family Residential,114 Walden Village Ct,Nashville,TN,37210,430000,4,3.5,Walden Village,1935,871,2017,,222,75,Sold,,,http://www.redfin.com/TN/Nashville/114-Walden-Village-Ln-37210/home/112484945,REALTRACS,2221796,N,Y,36.1426821,-86.7490993
PAST SALE,April-27-2021,Townhouse,1340 Riverbrook Dr,Hermitage,TN,37076,345000,3,2.5,Villages Of Riverwood,1952,3049,2010,,177,150,Sold,,,http://www.redfin.com/TN/Hermitage/1340-Riverbrook-Dr-37076/home/108107220,REALTRACS,2227439,N,Y,36.1688733,-86.6174267
PAST SALE,March-30-2021,Single Family Residential,507 Southgate Ave,Nashville,TN,37203,575000,3,2.5,Southgate Townhomes,1994,871,2014,,288,75,Sold,,,http://www.redfin.com/TN/Nashville/507-Southgate-Ave-37203/home/60834293,REALTRACS,2221068,N,Y,36.1357598,-86.7670978
PAST SALE,February-17-2021,Condo/Co-op,3014 Hedrick St #505,Nashville,TN,37203,410000,2,2.5,West End Lofts,1872,1742,2001,,219,513,Sold,,,http://www.redfin.com/TN/Nashville/3014-Hedrick-St-37203/unit-505/home/108104601,REALTRACS,2183694,N,Y,36.1442175,-86.8155617
PAST SALE,February-26-2021,Condo/Co-op,205 31st Ave N #308,Nashville,TN,37203,599000,2,2.0,Midtown Lofts,1891,2178,2006,,317,587,Sold,,,http://www.redfin.com/TN/Nashville/205-31st-Ave-N-37203/unit-308/home/60646223,REALTRACS,2217624,N,Y,36.1448856,-86.8167778
PAST SALE,March-2-2021,Townhouse,334 Elmington Ave,Nashville,TN,37205,390000,3,2.5,Elmington,1912,871,1972,,204,425,Sold,,,http://www.redfin.com/TN/Nashville/334-Elmington-Ave-37205/unit-F-13/home/108126799,REALTRACS,2221225,N,Y,36.1323269,-86.821369
PAST SALE,February-18-2021,Townhouse,3189 Parthenon Ave #6,Nashville,TN,37203,499900,3,3.5,Rise At West End Park,1790,871,2007,,279,250,Sold,,,http://www.redfin.com/TN/Nashville/3189-Parthenon-Ave-37203/unit-6/home/60651059,REALTRACS,2220449,N,Y,36.1453782,-86.820975
PAST SALE,April-29-2021,Single Family Residential,4500 Post Rd #39,Nashville,TN,37205,351000,3,2.0,The Hillwood,1974,2178,1974,,178,365,Sold,,,http://www.redfin.com/TN/Nashville/4500-Post-Rd-37205/unit-39/home/87801271,REALTRACS,2235457,N,Y,36.126523,-86.853618
PAST SALE,April-29-2021,Condo/Co-op,4487 Post Pl #129,Nashville,TN,37205,292500,3,2.0,Lions Head,1768,1742,1975,,165,475,Sold,,,http://www.redfin.com/TN/Nashville/4487-Post-Pl-37205/unit-129/home/108062268,REALTRACS,2239609,N,Y,36.131307,-86.850456
PAST SALE,February-26-2021,Townhouse,311 Plantation Ct,Nashville,TN,37221,275000,3,2.5,River Plantation,1776,871,1972,,155,248,Sold,,,http://www.redfin.com/TN/Nashville/311-Plantation-Ct-37221/home/108049420,REALTRACS,2208941,N,Y,36.0732959,-86.9486203
PAST SALE,January-12-2021,Townhouse,8207 Sawyer Brown Rd Unit J4,Nashville,TN,37221,286400,3,2.5,River Plantation,1776,871,1976,,161,260,Sold,,,http://www.redfin.com/TN/Nashville/8207-Sawyer-Brown-Rd-37221/unit-J4/home/60656117,REALTRACS,2211401,N,Y,36.0740703,-86.9469479
PAST SALE,February-1-2021,Single Family Residential,905 Woodmont Blvd,Nashville,TN,37204,529000,3,2.0,Woodmont Hills,1888,1306,1952,,280,,Sold,,,http://www.redfin.com/TN/Nashville/905-Woodmont-Blvd-37204/home/108060776,REALTRACS,2199542,N,Y,36.109635,-86.7806585
PAST SALE,February-9-2021,Townhouse,641 Old Hickory Blvd #405,Brentwood,TN,37027,360000,3,2.5,Townhomes Of Fredericksbur,1762,1306,1999,,204,252,Sold,,,http://www.redfin.com/TN/Brentwood/641-Old-Hickory-Blvd-37027/unit-405/home/108097592,REALTRACS,2219702,N,Y,36.039128,-86.761326
PAST SALE,,Single Family Residential,3113 Penn Meade Way,Nashville,TN,37214,265000,3,3.0,,1776,3049,2006,,149,,,,,http://www.redfin.com/TN/Nashville/3113-Penn-Meade-Way-37214/home/108017010,,,N,Y,36.2422105,-86.7043336
PAST SALE,May-6-2021,Single Family Residential,3148 Penn Meade Way,Nashville,TN,37214,316500,3,2.5,River Glen,1771,3049,2006,,179,18,Sold,,,http://www.redfin.com/TN/Nashville/3148-Penn-Meade-Way-37214/home/102801960,REALTRACS,2243323,N,Y,36.2426419,-86.7042123
PAST SALE,December-29-2020,Condo/Co-op,2075 Oakwood Ave Unit 17,Nashville,TN,37207,359900,3,3.0,Oakwood Townhomes,1860,1742,2020,,193,150,Sold,,,http://www.redfin.com/TN/Nashville/2075-Oakwood-Ave-37207/unit-17/home/171166625,REALTRACS,2185842,N,Y,36.209007,-86.7524322
PAST SALE,April-16-2021,Condo/Co-op,2091 Oakwood Ave Unit 10,Nashville,TN,37207,368800,3,3.0,Oakwood Townhomes,1860,1742,2020,,198,150,Sold,,,http://www.redfin.com/TN/Nashville/2091-Oakwood-Ave-37207/home/173370621,REALTRACS,2218033,N,Y,36.209401,-86.752703
PAST SALE,May-3-2021,Condo/Co-op,2105 Oakwood Ave Unit 7,Nashville,TN,37207,355500,2,2.5,Oakwood Townhomes,1800,1306,2020,,198,150,Sold,,,http://www.redfin.com/TN/Nashville/2105-Oakwood-Ave-37207/home/174052286,REALTRACS,2216539,N,Y,36.209543,-86.752869
PAST SALE,May-5-2021,Condo/Co-op,2107 Oakwood Ave Unit 6,Nashville,TN,37207,370900,3,3.0,Oakwood Townhomes,1860,1742,2020,,199,150,Sold,,,http://www.redfin.com/TN/Nashville/2107-Oakwood-Ave-37207/home/174052256,REALTRACS,2216533,N,Y,36.209583,-86.752915
PAST SALE,April-16-2021,Single Family Residential,118 Marie St,Nashville,TN,37207,489900,3,3.5,Cleveland Parke,1945,871,2021,,252,125,Sold,,,http://www.redfin.com/TN/Nashville/118-Marie-St-37207/home/148398470,REALTRACS,2229852,N,Y,36.1969103,-86.7697296
PAST SALE,April-23-2021,Single Family Residential,116 Marie St,Nashville,TN,37207,489000,3,3.5,Cleveland Parke,1871,871,2021,,261,125,Sold,,,http://www.redfin.com/TN/Nashville/116-Marie-St-37207/home/148398471,REALTRACS,2238387,N,Y,36.1969223,-86.7698301
PAST SALE,April-2-2021,Single Family Residential,122 Marie St,Nashville,TN,37207,495000,3,3.5,Cleveland Parke,1945,871,2021,,254,125,Sold,,,http://www.redfin.com/TN/Nashville/122-Marie-St-37207/unit-11/home/148398468,REALTRACS,2230018,N,Y,36.1968884,-86.7695238
PAST SALE,April-24-2021,Single Family Residential,120 Marie St,Nashville,TN,37207,482500,3,3.5,Cleveland Parke,1871,871,2021,,258,125,Sold,,,http://www.redfin.com/TN/Nashville/120-Marie-St-37207/home/148398469,REALTRACS,2223058,N,Y,36.1968995,-86.7696263
PAST SALE,March-10-2021,Townhouse,5152 Southfork Blvd,Old Hickory,TN,37138,260000,3,2.5,Hermitage Spring Estates,1756,1742,2007,,148,160,Sold,,,http://www.redfin.com/TN/Old-Hickory/5152-Southfork-Blvd-37138/home/108107529,REALTRACS,2217700,N,Y,36.219328,-86.632681
PAST SALE,April-22-2021,Single Family Residential,520 Griffin Cir,Hermitage,TN,37076,271500,3,2.5,Townhomes Of Truxton Villa,1772,1306,2007,,153,167,Sold,,,http://www.redfin.com/TN/Hermitage/520-Griffin-Cir-37076/home/60642573,REALTRACS,2234574,N,Y,36.2191836,-86.596047
PAST SALE,February-10-2021,Condo/Co-op,944 Riverside Dr,Nashville,TN,37206,445000,3,3.5,East Nashville,2000,871,2016,,223,100,Sold,,,http://www.redfin.com/TN/Nashville/944-Riverside-Dr-37206/home/112484121,REALTRACS,2207189,N,Y,36.1859807,-86.7259123
PAST SALE,February-5-2021,Single Family Residential,1015A Elvira Ave,Nashville,TN,37216,425000,3,2.5,East Nashville,1955,1306,2017,,217,,Sold,,,http://www.redfin.com/TN/Nashville/1015A-Elvira-Ave-37216/home/173410926,REALTRACS,2214439,N,Y,36.2064711,-86.7385468
PAST SALE,March-18-2021,Single Family Residential,1145B Cahal Ave,Nashville,TN,37206,460000,3,3.0,The Element At 1145 Cahal,1878,871,2015,,245,,Sold,,,http://www.redfin.com/TN/Nashville/1145B-Cahal-Ave-37206/home/172119843,REALTRACS,2236983,N,Y,36.196589,-86.7381345
PAST SALE,March-19-2021,Single Family Residential,2321 Pennington Ave,Nashville,TN,37216,460000,3,2.5,Homes At 2321 & 2323 Penni,1912,871,2020,,241,,Sold,,,http://www.redfin.com/TN/Nashville/2321-Pennington-Ave-37216/home/107982941,REALTRACS,2227663,N,Y,36.200788,-86.729777
PAST SALE,December-29-2020,Single Family Residential,709 Ward St Unit A,Nashville,TN,37207,455000,3,3.0,709 Ward Street Townhomes,1864,871,2017,,244,,Sold,,,http://www.redfin.com/TN/Nashville/709-Ward-St-37207/unit-A/home/144497388,REALTRACS,2200229,N,Y,36.199042,-86.7573306
PAST SALE,January-8-2021,Condo/Co-op,2081 Oakwood Ave Unit 14,Nashville,TN,37207,374900,3,3.0,Oakwood Townhomes,1860,1742,2020,,202,150,Sold,,,http://www.redfin.com/TN/Nashville/2081-Oakwood-Ave-37207/home/171166607,REALTRACS,2185843,N,Y,36.2091378,-86.7525567
PAST SALE,March-10-2021,Single Family Residential,7396 Old Harding Pike,Nashville,TN,37221,375000,3,2.5,Bellevue Station,1880,1306,2017,,199,100,Sold,,,http://www.redfin.com/TN/Nashville/7396-Old-Harding-Pike-37221/home/144500200,REALTRACS,2223868,N,Y,36.0652081,-86.9391773
PAST SALE,March-12-2021,Single Family Residential,7394 Old Harding Pike,Nashville,TN,37221,376000,3,2.5,Bellevue Station,1818,871,2016,,207,100,Sold,,,http://www.redfin.com/TN/Nashville/7394-Old-Harding-Pike-37221/home/103929260,REALTRACS,2226496,N,Y,36.0652198,-86.9390597
PAST SALE,January-19-2021,Condo/Co-op,818 Melpark Ct,Nashville,TN,37204,519900,3,3.0,Melpark Townhomes,1805,871,2016,,288,219,Sold,,,http://www.redfin.com/TN/Nashville/818-Melpark-Ct-37204/home/107604229,REALTRACS,2209326,N,Y,36.1285212,-86.775884
PAST SALE,January-22-2021,Condo/Co-op,2207A 10th Ave S,Nashville,TN,37204,576200,3,3.5,2207 Townhomes,1860,871,2004,,310,,Sold,,,http://www.redfin.com/TN/Nashville/2207A-10th-Ave-S-37204/home/147983588,REALTRACS,2211362,N,Y,36.1284041,-86.7863727
PAST SALE,,Single Family Residential,2724 Rosedale Pl,Nashville,TN,37211,415000,3,2.5,,1970,3920,2000,,211,,,,,http://www.redfin.com/TN/Nashville/2724-Rosedale-Pl-37211/home/68826319,,,N,Y,36.1229589,-86.7628992
PAST SALE,December-17-2020,Townhouse,3054 Whitland Crossing Dr,Nashville,TN,37214,305000,3,2.5,Donelsons Place,1941,1742,2011,,157,125,Sold,,,http://www.redfin.com/TN/Nashville/3054-Whitland-Crossing-Dr-37214/home/108108071,REALTRACS,2206043,N,Y,36.153692,-86.667938
PAST SALE,November-23-2020,Single Family Residential,101 Bear Trak,Nashville,TN,37221,386000,3,2.5,Coronada,1875,1306,1975,,206,330,Sold,,,http://www.redfin.com/TN/Nashville/101-Bear-Track-Dr-37221/home/108128218,REALTRACS,2194762,N,Y,36.0735686,-86.9155542
PAST SALE,February-5-2021,Townhouse,320 Old Hickory Blvd #905,Nashville,TN,37221,310000,3,2.5,Eagle Ridge At The Reserve,1979,871,2002,,157,267,Sold,,,http://www.redfin.com/TN/Nashville/320-Old-Hickory-Blvd-37221/unit-905/home/108138012,REALTRACS,2217260,N,Y,36.0885646,-86.9191408
PAST SALE,March-12-2021,Townhouse,1029 Woodbury Falls Dr,Nashville,TN,37221,310000,2,3.0,Woodbury,1984,871,2007,,156,150,Sold,,,http://www.redfin.com/TN/Nashville/1029-Woodbury-Falls-Dr-37221/home/108024222,REALTRACS,2224160,N,Y,36.0873354,-86.9214052
PAST SALE,March-17-2021,Townhouse,320 Old Hickory Blvd #406,Nashville,TN,37221,325000,3,2.5,Eagle Ridge At The Reserve,1952,871,2002,,166,268,Sold,,,http://www.redfin.com/TN/Nashville/320-Old-Hickory-Blvd-37221/unit-406/home/107988444,REALTRACS,2231589,N,Y,36.0885646,-86.9191408
PAST SALE,December-15-2020,Townhouse,7277 Charlotte Pike #316,Nashville,TN,37209,283000,2,2.5,West Park,1774,871,2006,,160,165,Sold,,,http://www.redfin.com/TN/Nashville/7277-Charlotte-Pike-37209/unit-316/home/108017696,REALTRACS,2205031,N,Y,36.1204356,-86.9168632
PAST SALE,January-22-2021,Townhouse,320 Old Hickory Blvd #1004,Nashville,TN,37221,315000,2,2.5,Eagle Ridge At The Reserve,1979,871,2002,,159,267,Sold,,,http://www.redfin.com/TN/Nashville/320-Old-Hickory-Blvd-37221/unit-1004/home/69716573,REALTRACS,2215839,N,Y,36.0885646,-86.9191408
PAST SALE,March-19-2021,Townhouse,7277 Charlotte Pike #227,Nashville,TN,37209,275000,2,2.5,West Park,1760,435,2005,,156,165,Sold,,,http://www.redfin.com/TN/Nashville/7277-Charlotte-Pike-37209/unit-227/home/96983784,REALTRACS,2225643,N,Y,36.1204356,-86.9168632
PAST SALE,April-16-2021,Townhouse,320 Old Hickory Blvd #2305,Nashville,TN,37221,337900,2,2.5,Eagle Ridge At The Reserve,1979,871,2003,,171,267,Sold,,,http://www.redfin.com/TN/Nashville/320-Old-Hickory-Blvd-37221/unit-2305/home/108044969,REALTRACS,2234676,N,Y,36.0885646,-86.9191408
PAST SALE,April-20-2021,Townhouse,8200 Lenox Creekside Dr,Antioch,TN,37013,320000,3,2.5,Lenox Creekside,1873,1306,2011,,171,130,Sold,,,http://www.redfin.com/TN/Antioch/8200-Lenox-Creekside-Dr-37013/home/65622444,REALTRACS,2240952,N,Y,36.010751,-86.6990011
PAST SALE,,Single Family Residential,5522 Prada Dr,Brentwood,TN,37027,342700,3,3.5,,1904,871,2013,,180,,,,,http://www.redfin.com/TN/Brentwood/5522-Prada-Dr-37027/home/60650166,,,N,Y,36.002167,-86.6934982
PAST SALE,December-1-2020,Condo/Co-op,1307A Little Hamilton Ave,Nashville,TN,37203,527500,3,2.5,Wedgewood Houston / WEHO,1920,1742,2016,,275,,Sold,,,http://www.redfin.com/TN/Nashville/1307A-Little-Hamilton-Ave-37203/home/167166352,REALTRACS,2181142,N,Y,36.1406216,-86.7653216
PAST SALE,December-29-2020,Townhouse,4116 Ridgefield Dr,Nashville,TN,37205,575000,2,2.5,Belle Meade Court,1884,1306,2008,,305,619,Sold,,,http://www.redfin.com/TN/Nashville/4116-Ridgefield-Dr-37205/home/108104544,REALTRACS,2167340,N,Y,36.124912,-86.844558
PAST SALE,April-29-2021,Multi-Family (2-4 Unit),103 Cherokee Rd,Nashville,TN,37205,660000,4,2.0,Cherokee Park,2000,871,1950,,330,,Sold,,,http://www.redfin.com/TN/Nashville/103-Cherokee-Rd-37205/unit-A/home/108050404,REALTRACS,2209094,N,Y,36.1309701,-86.8385439
PAST SALE,December-22-2020,Townhouse,7252 Highway 70 S #1106,Nashville,TN,37221,305000,2,3.0,Bellevue Commons,1902,871,2001,,160,81,Sold,,,http://www.redfin.com/TN/Nashville/7252-Hwy-70-S-37221/unit-1106/home/108105341,REALTRACS,2187042,N,Y,36.074993,-86.9311199
PAST SALE,January-11-2021,Townhouse,7252 Highway 70 S #1501,Nashville,TN,37221,295500,2,3.0,Bellevue Commons,1902,871,2000,,155,81,Sold,,,http://www.redfin.com/TN/Nashville/7252-Hwy-70-S-37221/unit-1501/home/108136584,REALTRACS,2191118,N,Y,36.074993,-86.9311199
PAST SALE,January-22-2021,Townhouse,7252 Highway 70 S #102,Nashville,TN,37221,280000,2,3.0,Bellevue Commons,1902,871,2000,,147,81,Sold,,,http://www.redfin.com/TN/Nashville/7252-Hwy-70-S-37221/unit-102/home/108057504,REALTRACS,2186062,N,Y,36.074993,-86.9311199
PAST SALE,March-9-2021,Condo/Co-op,1356 General George Patton Rd,Nashville,TN,37221,279500,3,3.0,River Plantation,1776,871,1984,,157,250,Sold,,,http://www.redfin.com/TN/Nashville/1356-General-George-Patton-Rd-37221/home/108091754,REALTRACS,2219623,N,Y,36.070523,-86.952541
PAST SALE,April-16-2021,Townhouse,9143 Sawyer Brown Rd,Nashville,TN,37221,330000,3,2.0,River Plantation,1927,871,1992,,171,225,Sold,,,http://www.redfin.com/TN/Nashville/9143-Sawyer-Brown-Rd-37221/home/108007650,REALTRACS,2242923,N,Y,36.0652479,-86.946753
PAST SALE,March-19-2021,Single Family Residential,5928 Stone Brook Dr #5928,Brentwood,TN,37027,286000,2,2.0,Brentwood Villa,1792,871,1986,,160,298,Sold,,,http://www.redfin.com/TN/Brentwood/5928-Stone-Brook-Dr-37027/unit-5928/home/60654482,REALTRACS,2223325,N,Y,36.0349645,-86.7809933
PAST SALE,March-9-2021,Condo/Co-op,4402 Harding Pl #3,Nashville,TN,37205,539900,2,2.0,Belle Meade,1766,1742,1996,,306,600,Sold,,,http://www.redfin.com/TN/Nashville/4402-Harding-Pl-37205/unit-3/home/108018133,REALTRACS,2179110,N,Y,36.0936777,-86.8513254
PAST SALE,January-22-2021,Single Family Residential,800 Barrington Place Dr,Brentwood,TN,37027,369000,2,2.5,Barrington Place,1966,1742,2006,,188,250,Sold,,,http://www.redfin.com/TN/Brentwood/800-Barrington-Pl-Dr-37027/home/108015954,REALTRACS,2135349,N,Y,36.038395,-86.754154
PAST SALE,January-4-2021,Townhouse,1311 Concord Mill Ln,Nashville,TN,37211,282000,3,3.5,Lenox Village,1924,2178,2006,,147,150,Sold,,,http://www.redfin.com/TN/Nashville/1311-Concord-Mill-Ln-37211/home/101385938,REALTRACS,2170601,N,Y,36.0189486,-86.7038567
PAST SALE,March-13-2021,Single Family Residential,421 Corner Aly,Nolensville,TN,37135,355720,3,2.5,Carothers Farms,1754,,2020,,203,91,Sold,,,http://www.redfin.com/TN/Nashville/Corner-Aly-37135/home/173162863,REALTRACS,2188999,N,Y,35.98332362,-86.62252241
PAST SALE,March-9-2021,Townhouse,5170 Hickory Hollow Pkwy #254,Antioch,TN,37013,198000,2,2.5,Mill Park,1998,435,2001,,99,121,Sold,,,http://www.redfin.com/TN/Antioch/5170-Hickory-Hollow-Pkwy-37013/unit-254/home/108015565,REALTRACS,2224868,N,Y,36.052213,-86.662464
PAST SALE,March-8-2021,Townhouse,5170 Hickory Hollow Pkwy #267,Antioch,TN,37013,214500,2,2.5,Mill Park,1752,435,2001,,122,121,Sold,,,http://www.redfin.com/TN/Antioch/5170-Hickory-Hollow-Pkwy-37013/unit-267/home/108138035,REALTRACS,2212964,N,Y,36.051886,-86.662298
PAST SALE,February-4-2021,Townhouse,2638 Nashboro Blvd,Nashville,TN,37217,228000,2,2.5,Nashboro Village Tr 21,1761,1306,2006,,129,99,Sold,,,http://www.redfin.com/TN/Nashville/2638-Nashboro-Blvd-37217/home/60660645,REALTRACS,2217882,N,Y,36.0929463,-86.6344689
PAST SALE,April-13-2021,Single Family Residential,4006 Liberton Way,Nolensville,TN,37135,430000,3,2.0,Burkitt Village,1755,4356,2018,,245,45,Sold,,,http://www.redfin.com/TN/Nolensville/4006-Liberton-Way-37135/home/148401976,REALTRACS,2233286,N,Y,35.987043,-86.661576
PAST SALE,March-29-2021,Townhouse,1321 Concord Mill Ln,Nashville,TN,37211,311000,3,3.5,Lenox Village,1890,2178,2006,,165,145,Sold,,,http://www.redfin.com/TN/Nashville/1321-Concord-Mill-Ln-37211/home/108060090,REALTRACS,2232153,N,Y,36.0192013,-86.7039307
PAST SALE,April-13-2021,Single Family Residential,7109 Sunnywood Dr,Nashville,TN,37211,399000,3,2.5,Lenox Village,1952,4356,2004,,204,80,Sold,,,http://www.redfin.com/TN/Nashville/7109-Sunnywood-Dr-37211/home/108101884,REALTRACS,2230768,N,Y,36.0232817,-86.7082111
PAST SALE,December-30-2020,Townhouse,606 Thetford Aly,Brentwood,TN,37027,331120,2,3.5,Southpoint,1901,1306,2020,,174,150,Sold,,,http://www.redfin.com/TN/Brentwood/Unknown-37027/unit-86/home/172636077,REALTRACS,2194973,N,Y,35.99612208,-86.68395185
PAST SALE,December-22-2020,Single Family Residential,1317 Litton Ave,Nashville,TN,37216,458000,3,3.0,1315 Litton Avenue Townhom,1861,1306,2017,,246,,Sold,,,http://www.redfin.com/TN/Nashville/1317-Litton-Ave-37216/home/148400262,REALTRACS,2197748,N,Y,36.2019728,-86.7335575
PAST SALE,January-22-2021,Single Family Residential,2146 Burns St,Nashville,TN,37216,499000,3,2.5,East Nashville,1907,3920,2020,,262,,Sold,,,http://www.redfin.com/TN/Nashville/2146-Burns-St-37216/home/173773451,REALTRACS,2209120,N,Y,36.1985941,-86.7294636
PAST SALE,December-4-2020,Single Family Residential,915B Elvira Ave,Nashville,TN,37216,445000,3,3.0,915 Elvira Avenue Townhome,1861,871,2018,,239,,Sold,,,http://www.redfin.com/TN/Nashville/915B-Elvira-Ave-37216/home/172293406,REALTRACS,2186111,N,Y,36.2071944,-86.7419155
PAST SALE,November-18-2020,Single Family Residential,2521 Pennington Bend Rd #124,Nashville,TN,37214,290000,3,3.0,Pennington Villas,1875,1742,2006,,155,175,Sold,,,http://www.redfin.com/TN/Nashville/2521-Pennington-Bend-Rd-37214/unit-124/home/108059139,REALTRACS,2186010,N,Y,36.2368497,-86.7009765
PAST SALE,January-4-2021,Townhouse,735 Tulip Grove Rd #121,Hermitage,TN,37076,246000,2,2.5,Tulip Cove,1753,1306,2006,,140,157,Sold,,,http://www.redfin.com/TN/Hermitage/735-Tulip-Grove-Rd-37076/unit-121/home/79088101,REALTRACS,2208884,N,Y,36.2018172,-86.5884287
PAST SALE,December-31-2020,Condo/Co-op,1129 Harmony Way,Nashville,TN,37207,469900,3,3.5,Lyric at Cleveland Park,1913,871,2020,,246,150,Sold,,,http://www.redfin.com/TN/Nashville/Unknown-37207/unit-36/home/174105422,REALTRACS,2217143,N,Y,36.201108,-86.754183
PAST SALE,January-26-2021,Condo/Co-op,2077 Oakwood Ave Unit 16,Nashville,TN,37207,353400,2,2.5,Oakwood Townhomes,1800,1306,2020,,196,150,Sold,,,http://www.redfin.com/TN/Nashville/2077-Oakwood-Ave-37207/unit-16/home/171166624,REALTRACS,2202501,N,Y,36.209057,-86.7524817
PAST SALE,March-2-2021,Single Family Residential,1316 Cardinal Ave,Nashville,TN,37216,473000,3,2.5,Homes At 1316 Cardinal Ave,1777,1306,2017,,266,,Sold,,,http://www.redfin.com/TN/Nashville/1316-Cardinal-Ave-37216/home/112483818,REALTRACS,2221310,N,Y,36.2187953,-86.7151917
PAST SALE,March-11-2021,Single Family Residential,1830B 9th Ave N,Nashville,TN,37208,400000,3,2.5,1830 9th Avenue North Home,1936,871,2018,,207,,Sold,,,http://www.redfin.com/TN/Nashville/1830-9th-Ave-N-37208/unit-B/home/144498179,REALTRACS,2218027,N,Y,36.1824514,-86.8022024
PAST SALE,March-29-2021,Single Family Residential,1610 16th Ave N,Nashville,TN,37208,469900,3,2.5,North Nashville,1920,4356,2021,,245,,Sold,,,http://www.redfin.com/TN/Nashville/1610-16th-Ave-N-37208/home/108032691,REALTRACS,2219553,N,Y,36.176072,-86.805775
PAST SALE,December-31-2020,Condo/Co-op,1127 Harmony Way,Nashville,TN,37207,469900,3,3.5,Lyric at Cleveland Park,1913,871,2020,,246,150,Sold,,,http://www.redfin.com/TN/Nashville/Unknown-37207/unit-37/home/174105411,REALTRACS,2217139,N,Y,36.201118,-86.754252
PAST SALE,November-18-2020,Single Family Residential,2141 Burns St Unit A,Nashville,TN,37216,476000,3,3.0,East Nashville,1860,1306,2020,,256,,Sold,,,http://www.redfin.com/TN/Nashville/2141-Burns-St-37216/unit-A/home/170539626,REALTRACS,2195899,N,Y,36.1982293,-86.7289259
PAST SALE,December-2-2020,Condo/Co-op,1145 Cahal Ave,Nashville,TN,37206,455000,3,3.0,The Element At 1145 Cahal,1953,871,2015,,233,,Sold,,,http://www.redfin.com/TN/Nashville/1145-Cahal-Ave-37206/home/107996928,REALTRACS,2203057,N,Y,36.196573,-86.738204
PAST SALE,November-30-2020,Townhouse,7819 Heaton Way,Nashville,TN,37211,274000,2,3.5,Lenox Village,1989,2178,2004,,138,133,Sold,,,http://www.redfin.com/TN/Nashville/7819-Heaton-Way-37211/home/108139290,REALTRACS,2195783,N,Y,36.0235122,-86.7088794
PAST SALE,December-7-2020,Townhouse,5518 Prada Dr,Brentwood,TN,37027,305000,4,3.5,High Point,1920,871,2013,,159,153,Sold,,,http://www.redfin.com/TN/Brentwood/5518-Prada-Dr-37027/home/60650172,REALTRACS,2189724,N,Y,36.0020913,-86.6935965
PAST SALE,November-19-2020,Townhouse,7818 Heaton Way,Nashville,TN,37211,299000,2,2.5,Lenox Village,1764,2178,2004,,170,133,Sold,,,http://www.redfin.com/TN/Nashville/7818-Heaton-Way-37211/home/107974364,REALTRACS,2197028,N,Y,36.0233608,-86.7091645
PAST SALE,December-29-2020,Townhouse,7049 Sunnywood Dr,Nashville,TN,37211,317000,3,2.5,Lenox Village,1851,3049,2005,,171,150,Sold,,,http://www.redfin.com/TN/Nashville/7049-Sunnywood-Dr-37211/home/108046647,REALTRACS,2202242,N,Y,36.0205273,-86.7053017
PAST SALE,December-23-2020,Townhouse,5551 Prada Dr,Brentwood,TN,37027,312275,3,3.5,High Point,1837,871,2016,,170,154,Sold,,,http://www.redfin.com/TN/Brentwood/5551-Prada-Dr-37027/home/108240392,REALTRACS,2207207,N,Y,36.0030735,-86.6934867
PAST SALE,December-30-2020,Townhouse,608 Thetford Aly,Brentwood,TN,37027,329900,2,3.5,Southpoint,1901,1306,2020,,174,150,Sold,,,http://www.redfin.com/TN/Brentwood/608-Thetford-ALY-37027/home/172641588,REALTRACS,2175141,N,Y,35.99612208,-86.68395185
PAST SALE,December-30-2020,Single Family Residential,604 Thetford Aly,Brentwood,TN,37027,338060,2,3.5,Southpoint,1901,1306,2020,,178,150,Sold,,,http://www.redfin.com/TN/Brentwood/604-Thetford-ALY-37027/home/173594904,REALTRACS,2203158,N,Y,35.99612208,-86.68395185
PAST SALE,December-24-2020,Townhouse,600 Thetford Aly,Brentwood,TN,37027,338690,2,3.5,Southpoint,1901,1306,2020,,178,150,Sold,,,http://www.redfin.com/TN/Brentwood/600-Thetford-ALY-37027/home/172641590,REALTRACS,2194976,N,Y,35.99612208,-86.68395185
PAST SALE,December-15-2020,Single Family Residential,359 Kara Ln,Nolensville,TN,37135,329950,3,3.5,Burkitt Commons,1860,1306,2020,,177,165,Sold,,,http://www.redfin.com/TN/NOLENSVILLE/359-KARA-LN-37135/home/170543086,REALTRACS,2213988,N,Y,35.990198,-86.679323
PAST SALE,November-12-2020,Condo/Co-op,948 Riverside Dr,Nashville,TN,37206,445000,3,3.5,East Nashville,2000,871,2016,,223,100,Sold,,,http://www.redfin.com/TN/Nashville/948-Riverside-Dr-37206/home/112484390,REALTRACS,2194513,N,Y,36.1861095,-86.7259675
PAST SALE,November-19-2020,Single Family Residential,1111 Fatherland St #101,Nashville,TN,37206,463000,3,2.5,Fatherland Court At Martin,1808,871,2006,,256,117,Sold,,,http://www.redfin.com/TN/Nashville/1111-Fatherland-St-37206/unit-101/home/108023365,REALTRACS,2196592,N,Y,36.1742098,-86.7493177
PAST SALE,April-5-2021,Townhouse,393 Monroe St,Nashville,TN,37208,599000,3,3.0,4th & Monroe,1812,871,2013,,331,270,Sold,,,http://www.redfin.com/TN/Nashville/393-Monroe-St-37208/home/60652344,REALTRACS,2227641,N,Y,36.176259,-86.787766
PAST SALE,January-4-2021,Condo/Co-op,514 27th Ave N,Nashville,TN,37209,620000,4,4.0,Axis27,1997,871,2020,,310,175,Sold,,,http://www.redfin.com/TN/Nashville/514-27th-Ave-N-37209/home/174108897,REALTRACS,2217400,N,Y,36.156435,-86.81707
PAST SALE,April-9-2021,Condo/Co-op,804A 28th Ave N,Nashville,TN,37208,475000,3,3.0,City Heights,1861,871,2020,,255,,Sold,,,http://www.redfin.com/TN/Nashville/804-28th-Ave-N-37208/home/68926105,REALTRACS,2219044,N,Y,36.160621,-86.818712
PAST SALE,January-29-2021,Single Family Residential,903 Cheatham Pl,Nashville,TN,37208,419900,3,2.5,The Lee Andrews Corner At,1958,871,2015,,214,,Sold,,,http://www.redfin.com/TN/Nashville/903-Cheatham-Pl-37208/home/112481318,REALTRACS,2209922,N,Y,36.1764577,-86.796716
PAST SALE,April-1-2021,Single Family Residential,1507B 14th Ave N,Nashville,TN,37208,384000,3,2.5,D T McGavock & Others,1800,4356,2020,,213,,Sold,,,http://www.redfin.com/TN/Nashville/1507B-14th-Ave-37208/home/172332857,REALTRACS,2164991,N,Y,36.1738503,-86.8031569
PAST SALE,January-12-2021,Single Family Residential,2719 Meharry Blvd,Nashville,TN,37208,405000,3,3.0,Nashville,1980,871,2020,,205,,Sold,,,http://www.redfin.com/TN/Nashville/2719-Meharry-Blvd-37208/home/170003081,REALTRACS,2175338,N,Y,36.1665704,-86.8199526
PAST SALE,March-31-2021,Townhouse,1010 Scovel St,Nashville,TN,37208,585000,3,3.5,Ludlow Row On 10th,1940,871,2018,,302,130,Sold,,,http://www.redfin.com/TN/Nashville/1010-Scovel-St-37208/home/144498236,REALTRACS,2225710,N,Y,36.1735483,-86.7961575
PAST SALE,February-8-2021,Condo/Co-op,1707 Blair Blvd #201,Nashville,TN,37212,750000,3,3.5,1707 Blair Boulevard,1879,1306,1948,,399,400,Sold,,,http://www.redfin.com/TN/Nashville/1707-Blair-Blvd-37212/unit-201/home/146448123,REALTRACS,2212699,N,Y,36.1294718,-86.7967281
PAST SALE,December-18-2020,Townhouse,264 Lake Chateau Dr,Hermitage,TN,37076,208000,3,2.0,Lake Chateau,1800,871,1973,,116,220,Sold,,,http://www.redfin.com/TN/Hermitage/264-Lake-Chateau-Dr-37076/home/104250347,REALTRACS,2196044,N,Y,36.1602157,-86.589097
PAST SALE,February-16-2021,Condo/Co-op,1435 11th Ave S,Nashville,TN,37203,625000,3,3.0,1106 Wade Avenue Townhomes,1945,871,2016,,321,160,Sold,,,http://www.redfin.com/TN/Nashville/1435-11th-Ave-S-37203/home/108500146,REALTRACS,2180927,N,Y,36.1371134,-86.7867787
PAST SALE,April-27-2021,Condo/Co-op,1106 Wade Ave #4,Nashville,TN,37203,620000,4,3.0,1106 Wade Avenue Townhomes,1941,871,2016,,319,150,Sold,,,http://www.redfin.com/TN/Nashville/1106-Wade-Ave-37203/unit-4/home/108500160,REALTRACS,2228480,N,Y,36.1369432,-86.7869758
PAST SALE,November-16-2020,Townhouse,1007 Woodbury Falls Dr,Nashville,TN,37221,295000,3,3.0,Woodbury,1984,871,2007,,149,100,Sold,,,http://www.redfin.com/TN/Nashville/1007-Woodbury-Falls-Dr-37221/home/60657212,REALTRACS,2192411,N,Y,36.0865045,-86.9213219
PAST SALE,April-9-2021,Single Family Residential,5408B Pennsylvania Ave,Nashville,TN,37209,515000,3,2.5,Homes At 5408 Pennslyvania,1774,1306,2019,,290,,Sold,,,http://www.redfin.com/TN/Nashville/5408-Pennsylvania-Ave-37209/unit-B/home/170540434,REALTRACS,2235030,N,Y,36.1632684,-86.8540712
PAST SALE,December-11-2020,Townhouse,737 General George Patton Rd,Nashville,TN,37221,290000,3,2.5,River Plantation,1873,871,1988,,155,200,Sold,,,http://www.redfin.com/TN/Nashville/737-General-George-Patton-Rd-37221/home/60658654,REALTRACS,2193294,N,Y,36.064487,-86.94384
PAST SALE,December-17-2020,Townhouse,603B Hamilton Ave,Nashville,TN,37203,624900,3,3.0,Hamilton & Martin Townhome,1957,871,2020,,319,275,Sold,,,http://www.redfin.com/TN/Nashville/603-Hamilton-Ave-37203/unit-A/home/170542033,REALTRACS,2168018,N,Y,36.138496,-86.77019
PAST SALE,April-1-2021,Townhouse,6948 Highland Park Dr,Nashville,TN,37205,215000,3,2.5,Harpeth Glen,1916,871,1972,,112,273,Sold,,,http://www.redfin.com/TN/Nashville/6948-Highland-Park-Dr-37205/unit-E-3/home/107980847,REALTRACS,2206680,N,Y,36.0782453,-86.8885685
PAST SALE,April-26-2021,Townhouse,711 Harpeth Trace Dr,Nashville,TN,37221,305000,3,2.5,Harpeth Knoll,1899,871,1987,,161,285,Sold,,,http://www.redfin.com/TN/Nashville/711-Harpeth-Trace-Dr-37221/home/60643368,REALTRACS,2233978,N,Y,36.076487,-86.89342
PAST SALE,January-15-2021,Condo/Co-op,1309 Forrest Ave #7,Nashville,TN,37206,492500,3,3.0,Lockland Springs,1833,1306,1903,,269,375,Sold,,,http://www.redfin.com/TN/Nashville/1309-Forrest-Ave-37206/unit-7/home/112481884,REALTRACS,2202047,N,Y,36.1783785,-86.7459982
PAST SALE,February-26-2021,Townhouse,821 Barrington Place Dr,Brentwood,TN,37027,425000,3,3.0,Barrington Place,1966,1742,2006,,216,250,Sold,,,http://www.redfin.com/TN/Brentwood/821-Barrington-Pl-Dr-37027/home/60653700,REALTRACS,2226364,N,Y,36.0375197,-86.753857
PAST SALE,March-25-2021,Single Family Residential,905 Catlow Ct,Brentwood,TN,37027,400000,2,2.0,Barrington Place,1966,1742,2006,,203,250,Sold,,,http://www.redfin.com/TN/Brentwood/905-Catlow-Ct-37027/home/108111863,REALTRACS,2239237,N,Y,36.0371222,-86.7547672
PAST SALE,March-15-2021,Single Family Residential,4609B Kentucky Ave,Nashville,TN,37209,550000,3,3.0,The Nations,1948,871,2015,,282,,Sold,,,http://www.redfin.com/TN/Nashville/4609B-Kentucky-Ave-37209/home/61712154,REALTRACS,2221356,N,Y,36.159781,-86.8434374
PAST SALE,December-8-2020,Single Family Residential,928 31st Ave N,Nashville,TN,37209,475000,3,3.0,Fisk University Place,1992,3920,2020,,238,,Sold,,,http://www.redfin.com/TN/Nashville/928-31st-Ave-N-37209/home/167940930,REALTRACS,2196024,N,Y,36.1618912,-86.8228101
PAST SALE,January-4-2021,Condo/Co-op,516 27th Ave N #2,Nashville,TN,37209,620000,4,4.0,Axis27,1997,871,2020,,310,175,Sold,,,http://www.redfin.com/TN/Nashville/516-27th-Ave-N-37209/unit-4/home/161070354,REALTRACS,2217401,N,Y,36.156551,-86.817059
PAST SALE,,Single Family Residential,932 31st Ave N,Nashville,TN,37209,475000,3,3.0,,2136,3920,2020,,222,,,,,http://www.redfin.com/TN/Nashville/932-31st-Ave-N-37209/home/167940931,,,N,Y,36.162083,-86.822843
PAST SALE,April-22-2021,Condo/Co-op,516 27th Ave N #3,Nashville,TN,37209,665000,4,4.0,Axis27,1997,871,2020,,333,175,Sold,,,http://www.redfin.com/TN/Nashville/516-27th-Ave-N-37209/unit-3/home/167121927,REALTRACS,2226540,N,Y,36.156551,-86.817059
PAST SALE,November-25-2020,Townhouse,4400 Belmont Park Ter #201,Nashville,TN,37215,469700,3,2.5,Arden Place,1936,1306,1977,,243,390,Sold,,,http://www.redfin.com/TN/Nashville/4400-Belmont-Park-Ter-37215/unit-201/home/108114847,REALTRACS,2193799,N,Y,36.0991081,-86.8039289
PAST SALE,January-25-2021,Single Family Residential,935 Bresslyn Rd Unit A,Nashville,TN,37205,420000,3,2.5,941 Breslyn Road,1904,871,2020,,221,,Sold,,,http://www.redfin.com/TN/Nashville/935-Bresslyn-Rd-37205/unit-A/home/173427596,REALTRACS,2198256,N,Y,36.130127,-86.896699
PAST SALE,December-29-2020,Townhouse,1207 General George Patton Rd #1207,Nashville,TN,37221,260000,3,2.5,River Plantation,1788,871,1984,,145,246,Sold,,,http://www.redfin.com/TN/Nashville/1207-General-George-Patton-Rd-37221/unit-1207/home/172303024,REALTRACS,2199340,N,Y,36.068978,-86.949262
PAST SALE,February-1-2021,Townhouse,8207 Sawyer Brown Rd Unit J8,Nashville,TN,37221,260000,3,2.5,River Plantation,1776,871,1972,,146,260,Sold,,,http://www.redfin.com/TN/Nashville/8207-Sawyer-Brown-Rd-37221/unit-J8/home/87806929,REALTRACS,2216698,N,Y,36.0740703,-86.9469479
PAST SALE,November-23-2020,Townhouse,1318 General George Patton Rd,Nashville,TN,37221,294900,4,3.0,River Plantation,1984,1306,1984,,149,246,Sold,,,http://www.redfin.com/TN/Nashville/1318-General-George-Patton-Rd-37221/home/60647156,REALTRACS,2193865,N,Y,36.069303,-86.951776
PAST SALE,April-1-2021,Single Family Residential,1128 General George Patton Rd,Nashville,TN,37221,309999,4,3.0,River Plantation,1968,871,1982,,158,185,Sold,,,http://www.redfin.com/TN/Nashville/1128-General-George-Patton-Rd-37221/home/108040162,REALTRACS,2220987,N,Y,36.06803,-86.949731
PAST SALE,April-23-2021,Townhouse,1091 General George Patton Rd,Nashville,TN,37221,279900,3,2.5,River Plantation,1794,871,1982,,156,217,Sold,,,http://www.redfin.com/TN/Nashville/1091-General-George-Patton-Rd-37221/home/108115519,REALTRACS,2236071,N,Y,36.067308,-86.952759
PAST SALE,May-6-2021,Single Family Residential,1334 General George Patton Rd,Nashville,TN,37221,312000,3,2.5,River Plantation,1798,871,1984,,174,246,Sold,,,http://www.redfin.com/TN/Nashville/1334-General-George-Patton-Rd-37221/home/60646308,REALTRACS,2241281,N,Y,36.070541,-86.952104
PAST SALE,January-8-2021,Townhouse,1814 16th Ave N Unit A,Nashville,TN,37208,382000,3,2.5,Buena Vista,1865,3702,2018,,205,,Sold,,,http://www.redfin.com/TN/Nashville/1814-16th-Ave-N-37208/unit-A/home/144498132,REALTRACS,2205689,N,Y,36.181064,-86.809927
PAST SALE,February-10-2021,Single Family Residential,1717 17th Ave N Unit A,Nashville,TN,37208,385000,3,3.0,Cottages Of 17th Avenue,1760,871,2018,,219,,Sold,,,http://www.redfin.com/TN/Nashville/1717-17th-Ave-N-37208/unit-A/home/144498198,REALTRACS,2190846,N,Y,36.1774294,-86.8093435
PAST SALE,November-23-2020,Condo/Co-op,1734 Pecan St,Nashville,TN,37208,360000,3,2.5,1734 Pecan Street Townhome,1884,3920,2018,,191,,Sold,,,http://www.redfin.com/TN/Nashville/1734-Pecan-St-37208/home/148400418,REALTRACS,2178514,N,Y,36.1870747,-86.8151498
PAST SALE,April-7-2021,Single Family Residential,1717 17th Ave N Unit B,Nashville,TN,37208,455000,3,3.0,Cottages Of 17th Avenue,1850,871,2020,,246,,Sold,,,http://www.redfin.com/TN/Nashville/1717-17th-Ave-N-37208/unit-B/home/144498199,REALTRACS,2232225,N,Y,36.1774294,-86.8093435
PAST SALE,March-19-2021,Condo/Co-op,2139 Buena Vista Pike,Nashville,TN,37218,459000,3,4.0,2137 Buena Vista Pike,1768,871,2020,,260,,Sold,,,http://www.redfin.com/TN/Nashville/2139-Buena-Vista-Pike-37218/home/173674268,REALTRACS,2206006,N,Y,36.196862,-86.828706
PAST SALE,December-10-2020,Condo/Co-op,402B Bowling Ave,Nashville,TN,37205,440000,2,2.5,West End / Whitland,1916,871,1999,,230,,Sold,,,http://www.redfin.com/TN/Nashville/402B-Bowling-Ave-37205/home/60719197,REALTRACS,2205443,N,Y,36.127509,-86.825935
PAST SALE,February-3-2021,Condo/Co-op,4120 Ridgefield Dr #506,Nashville,TN,37205,775000,3,2.5,Belle Meade Court,1900,2613,2008,,408,624,Sold,,,http://www.redfin.com/TN/Nashville/4120-Ridgefield-Dr-37205/unit-506/home/81571545,REALTRACS,2181762,N,Y,36.1248075,-86.8448178
PAST SALE,April-28-2021,Condo/Co-op,20 Rutledge St #306,Nashville,TN,37210,880000,2,3.0,City Lights,1777,2178,2018,,495,958,Sold,,,http://www.redfin.com/TN/Nashville/20-Rutledge-St-37210/unit-306/home/170127948,REALTRACS,2226867,N,Y,36.1563844,-86.7695636
PAST SALE,February-19-2021,Condo/Co-op,2016D Beech Ave,Nashville,TN,37204,565000,2,2.5,2016 Beech Townhomes,1779,871,2017,,318,,Sold,,,http://www.redfin.com/TN/Nashville/2016d-Beech-Ave-37204/home/147995857,REALTRACS,2219988,N,Y,36.1329761,-86.7804926
PAST SALE,May-7-2021,Townhouse,1304 Wedgewood Ave,Nashville,TN,37212,605000,3,3.5,Belmont Close Townhomes,1797,871,2013,,337,250,Sold,,,http://www.redfin.com/TN/Nashville/1304-Wedgewood-Ave-37212/home/68715070,REALTRACS,2223526,N,Y,36.136304,-86.7903013
PAST SALE,,Condo/Co-op,1600 Lincoya Bay Dr,Nashville,TN,37214,252500,3,2.5,,1842,,2005,,137,,,,,http://www.redfin.com/TN/Nashville/1600-Lincoya-Bay-Dr-37214/home/108106841,,,N,Y,36.14281,-86.621135
PAST SALE,March-18-2021,Townhouse,100 Riverstone Dr,Nashville,TN,37214,293000,2,2.0,Riverstone,1767,871,1999,,166,156,Sold,,,http://www.redfin.com/TN/Nashville/100-Riverstone-Dr-37214/home/108000346,REALTRACS,2223151,N,Y,36.1709562,-86.6535419
PAST SALE,January-29-2021,Townhouse,358 Elmington Ave,Nashville,TN,37205,345000,3,2.5,Elmington,1877,871,1972,,184,425,Sold,,,http://www.redfin.com/TN/Nashville/358-Elmington-Ave-37205/home/108021437,REALTRACS,2204031,N,Y,36.131875,-86.821308
PAST SALE,February-1-2021,Single Family Residential,509C Chesterfield Ave,Nashville,TN,37212,520000,3,3.5,The Chesterfield,1888,871,2013,,275,,Sold,,,http://www.redfin.com/TN/Nashville/509c-Chesterfield-Ave-37212/home/60801038,REALTRACS,2215346,N,Y,36.1322175,-86.8166738
PAST SALE,March-2-2021,Single Family Residential,611 Chesterfield Way,Nashville,TN,37212,525000,3,3.5,The Chesterfield,1888,871,2013,,278,100,Sold,,,http://www.redfin.com/TN/Nashville/611-Chesterfield-Way-37212/home/65908031,REALTRACS,2224226,N,Y,36.1317009,-86.8170454
PAST SALE,December-29-2020,Single Family Residential,800 Lancaster Way,Nashville,TN,37212,514500,3,3.5,The Chesterfield,1906,871,2013,,270,100,Sold,,,http://www.redfin.com/TN/Nashville/800-Lancaster-Way-37212/home/87811129,REALTRACS,2209268,N,Y,36.1313825,-86.817358
PAST SALE,January-15-2021,Single Family Residential,1514 Arthur Ave Unit A,Nashville,TN,37208,481000,3,2.5,Arthur Avenue Brownstones,1983,1306,2016,,243,,Sold,,,http://www.redfin.com/TN/Nashville/1514-Arthur-Ave-37208/unit-A/home/108046778,REALTRACS,2212596,N,Y,36.1760499,-86.798761
PAST SALE,April-23-2021,Condo/Co-op,1514B Arthur Ave,Nashville,TN,37208,545000,3,2.5,Arthur Avenue Brownstones,1983,1306,2016,,275,,Sold,,,http://www.redfin.com/TN/Nashville/1514B-Arthur-Ave-37208/home/113095240,REALTRACS,2236735,N,Y,36.176086,-86.79881
PAST SALE,April-20-2021,Townhouse,4505 Harding Pike #124,Nashville,TN,37205,376000,3,3.5,Royal Oaks,1955,871,1969,,192,355,Sold,,,http://www.redfin.com/TN/Nashville/4505-Harding-Pike-37205/unit-124/home/68709238,REALTRACS,2193943,N,Y,36.122933,-86.8477189
PAST SALE,November-23-2020,Townhouse,775 Harpeth Trace Dr,Nashville,TN,37221,259000,3,2.5,Harpeth Knoll,1939,871,1987,,134,330,Sold,,,http://www.redfin.com/TN/Nashville/775-Harpeth-Trace-Dr-37221/home/108027278,REALTRACS,2179309,N,Y,36.0745824,-86.8952052
PAST SALE,February-16-2021,Townhouse,320 Old Hickory Blvd #604,Nashville,TN,37221,310000,3,3.5,Eagle Ridge At The Reserve,1941,871,2002,,160,267,Sold,,,http://www.redfin.com/TN/Nashville/320-Old-Hickory-Blvd-37221/unit-604/home/60640781,REALTRACS,2213829,N,Y,36.0885646,-86.9191408
PAST SALE,March-1-2021,Single Family Residential,6666 Brookmont Ter #1004,Nashville,TN,37205,380000,3,3.0,Wessex Towers,1850,871,1973,,205,979,Sold,,,http://www.redfin.com/TN/Nashville/6666-Brookmont-Ter-37205/unit-1004/home/108136087,REALTRACS,2213676,N,Y,36.0850421,-86.8961105
PAST SALE,December-17-2020,Single Family Residential,106 Colbert Way,Nashville,TN,37206,385000,3,2.5,Joule,1770,871,2017,,218,149,Sold,,,http://www.redfin.com/TN/Nashville/106-Colbert-Way-37206/home/144496409,REALTRACS,2203218,N,Y,36.1908325,-86.7102093
PAST SALE,April-8-2021,Townhouse,4001 Anderson Rd Unit C116,Nashville,TN,37217,174600,3,2.5,Harbour Town,1904,871,1978,,92,265,Sold,,,http://www.redfin.com/TN/Nashville/4001-Anderson-Rd-37217/unit-C116/home/174283667,REALTRACS,2223025,N,Y,36.105834,-86.5994412
PAST SALE,February-25-2021,Townhouse,1085 General George Patton Rd,Nashville,TN,37221,270000,3,2.5,River Plantation,1920,871,1982,,141,217,Sold,,,http://www.redfin.com/TN/Nashville/1085-General-George-Patton-Rd-37221/unit-R/home/108130433,REALTRACS,2219292,N,Y,36.067966,-86.952873
PAST SALE,December-29-2020,Townhouse,1029 Todd Preis Dr,Nashville,TN,37221,279900,3,2.5,River Plantation,1782,871,1976,,157,250,Sold,,,http://www.redfin.com/TN/Nashville/1029-Todd-Preis-Dr-37221/home/87806824,REALTRACS,2203590,N,Y,36.073232,-86.952105
PAST SALE,December-21-2020,Condo/Co-op,252 Myhr Grn,Nashville,TN,37221,307900,3,2.0,Ashley Green,1768,1742,1990,,174,250,Sold,,,http://www.redfin.com/TN/Nashville/252-Myhr-Grn-37221/unit-52/home/108069220,REALTRACS,2208498,N,Y,36.071691,-86.930837
PAST SALE,April-19-2021,Single Family Residential,1307 General George Patton Rd,Nashville,TN,37221,315000,3,2.0,River Plantation,1816,1742,1984,,173,246,Sold,,,http://www.redfin.com/TN/Nashville/1307-General-George-Patton-Rd-37221/home/87829966,REALTRACS,2233629,N,Y,36.07046,-86.951679
PAST SALE,March-24-2021,Townhouse,2713A Gear St,Nashville,TN,37216,365000,3,3.5,Gear Street,1882,871,2004,,194,,Sold,,,http://www.redfin.com/TN/Nashville/2713A-Gear-St-37216/home/174441164,REALTRACS,2228771,N,Y,36.2022247,-86.7471678
PAST SALE,May-4-2021,Condo/Co-op,1042 Maynor St,Nashville,TN,37216,421500,3,2.5,Homes At 1032 Maynor Avenu,1783,1306,2016,,236,85,Sold,,,http://www.redfin.com/TN/Nashville/1042-Maynor-Ave-37216/home/110280098,REALTRACS,2242396,N,Y,36.2068138,-86.7372486
PAST SALE,January-7-2021,Townhouse,1600 Lincoya Bay Dr #1600,Nashville,TN,37214,252500,3,2.5,Cottages At Willams Bend,1750,1306,2005,,144,110,Sold,,,http://www.redfin.com/TN/Nashville/1600-Lincoya-Bay-Dr-37214/unit-1600/home/173634349,REALTRACS,2197155,N,Y,36.14281,-86.621135
PAST SALE,February-25-2021,Condo/Co-op,1111 Harmony Way,Nashville,TN,37207,449900,4,3.5,Lyric at Cleveland Park,1913,871,2020,,235,150,Sold,,,http://www.redfin.com/TN/Nashville/Unknown-37207/unit-45/home/174218543,REALTRACS,2221355,N,Y,36.201322,-86.754214
PAST SALE,March-31-2021,Condo/Co-op,2087 Oakwood Ave Unit 12,Nashville,TN,37207,357200,2,2.5,Oakwood Townhomes,1800,1306,2020,,198,150,Sold,,,http://www.redfin.com/TN/Nashville/2087-Oakwood-Ave-37207/unit-12/home/173370697,REALTRACS,2218030,N,Y,36.209321,-86.752609
PAST SALE,January-11-2021,Condo/Co-op,2079 Oakwood Ave Unit 15,Nashville,TN,37207,350100,2,2.5,Oakwood Townhomes,1800,1306,2020,,195,150,Sold,,,http://www.redfin.com/TN/Nashville/2079-Oakwood-Ave-37207/unit-15/home/171166609,REALTRACS,2185841,N,Y,36.2091055,-86.7525106
PAST SALE,April-1-2021,Condo/Co-op,2061 Oakwood Ave #18,Nashville,TN,37207,378400,3,3.0,Oakwood Townhomes,1860,1742,2020,,203,150,Sold,,,http://www.redfin.com/TN/Nashville/2061-Oakwood-Ave-37207/home/174601320,REALTRACS,2232614,N,Y,36.2087776,-86.7522729
PAST SALE,April-5-2021,Condo/Co-op,2089 Oakwood Ave Unit 11,Nashville,TN,37207,355250,2,2.5,Oakwood Townhomes,1800,1306,2020,,197,150,Sold,,,http://www.redfin.com/TN/Nashville/2089-Oakwood-Ave-37207/home/173370695,REALTRACS,2218031,N,Y,36.209361,-86.752655
PAST SALE,May-10-2021,Condo/Co-op,2101 Oakwood Ave Unit 9,Nashville,TN,37207,364900,3,3.0,Oakwood Townhomes,1860,1742,2020,,196,150,Sold,,,http://www.redfin.com/TN/Nashville/2101-Oakwood-Ave-37207/home/174052188,REALTRACS,2216532,N,Y,36.209463,-86.752774
PAST SALE,March-9-2021,Single Family Residential,4215 Harding Pike #205,Nashville,TN,37205,390500,3,2.5,Windsor Tower,1844,1742,1967,,212,1218,Sold,,,http://www.redfin.com/TN/Nashville/4215-Harding-Pike-37205/unit-205/home/60659106,REALTRACS,2189879,N,Y,36.12784,-86.8411
PAST SALE,January-13-2021,Single Family Residential,2141B Burns St,Nashville,TN,37216,476000,3,3.0,East Nashville,1860,1306,2020,,256,,Sold,,,http://www.redfin.com/TN/Nashville/2141-Burns-St-37216/unit-B/home/170539628,REALTRACS,2200322,N,Y,36.1982293,-86.7289259
PAST SALE,January-29-2021,Single Family Residential,2148 Burns St,Nashville,TN,37216,499900,3,2.5,East Nashville,1907,3920,2020,,262,,Sold,,,http://www.redfin.com/TN/Nashville/2148-Burns-St-37216/home/174074863,REALTRACS,2216797,N,Y,36.1986443,-86.7294546
PAST SALE,February-2-2021,Townhouse,2729 Smith Springs Rd,Nashville,TN,37217,244900,3,2.0,Spring View Townhomes,2000,871,1984,,122,190,Sold,,,http://www.redfin.com/TN/Nashville/2729-Smith-Springs-Rd-37217/home/108097594,REALTRACS,2203238,N,Y,36.0894515,-86.6239029
PAST SALE,December-4-2020,Single Family Residential,3413 Old Anderson Rd,Antioch,TN,37013,309900,3,2.5,3413 Old Anderson Rd,1833,1306,2020,,169,25,Sold,,,http://www.redfin.com/TN/Antioch/3413-Old-Anderson-Rd-37013/unit-1/home/167950913,REALTRACS,2194334,N,Y,36.0858264,-86.6051314
PAST SALE,December-29-2020,Single Family Residential,110 31st Ave N #703,Nashville,TN,37203,715000,2,2.0,The West End,1855,2178,2009,,385,746,Sold,,,http://www.redfin.com/TN/Nashville/110-31st-Ave-N-37203/unit-703/home/60657488,REALTRACS,2170782,N,Y,36.1435413,-86.8156402
PAST SALE,March-15-2021,Townhouse,2116 Acklen Ave Unit A,Nashville,TN,37212,760000,3,3.5,Regent Acklen Townhomes,1916,871,2016,,397,325,Sold,,,http://www.redfin.com/TN/Nashville/2116-Acklen-Ave-37212/unit-A/home/112485077,REALTRACS,2230900,N,Y,36.136009,-86.8025948
PAST SALE,December-11-2020,Townhouse,3536 Seneca Forest Dr,Nashville,TN,37217,160000,2,1.5,Priest Lake Forest,1820,435,1984,,88,132,Sold,,,http://www.redfin.com/TN/Nashville/3536-Seneca-Forest-Dr-37217/unit-39/home/104500978,REALTRACS,2202399,N,Y,36.091888,-86.611551
PAST SALE,March-26-2021,Condo/Co-op,1000 W Trinity Ln #27,Nashville,TN,37218,550000,4,4.0,WestVue,1772,871,2021,,310,150,Sold,,,http://www.redfin.com/TN/Nashville/1000-W-Trinity-Ln-37218/unit-27/home/174601053,REALTRACS,2232597,N,Y,36.2054787,-86.8113256
PAST SALE,May-5-2021,Condo/Co-op,2118 Elliott Ave #10,Nashville,TN,37204,639900,3,3.5,Elliot Avenue Townhomes,2000,871,2018,,320,140,Sold,,,http://www.redfin.com/TN/Nashville/2118-Elliott-Ave-37204/unit-10/home/112485357,REALTRACS,2229120,N,Y,36.1298513,-86.7799876
PAST SALE,January-9-2021,Townhouse,5510 Country Dr #122,Nashville,TN,37211,180000,3,3.0,Hickory Valley Condominium,1828,871,1972,,98,216,Sold,,,http://www.redfin.com/TN/Nashville/5510-Country-Dr-37211/unit-122/home/108134318,REALTRACS,2212657,N,Y,36.049212,-86.705093
PAST SALE,December-15-2020,Condo/Co-op,627 Farrell Pkwy,Nashville,TN,37220,398000,3,2.0,Farrell,1775,1742,1955,,224,,Sold,,,http://www.redfin.com/TN/Nashville/627-Farrell-Pkwy-37220/unit-A/home/95649949,REALTRACS,2198800,N,Y,36.073304,-86.765797
PAST SALE,April-27-2021,Condo/Co-op,2600 Hillsboro Pike #229,Nashville,TN,37212,459000,2,2.0,The Enclave At Hillsboro V,1880,2178,2006,,244,430,Sold,,,http://www.redfin.com/TN/Nashville/2600-Hillsboro-Pike-37212/unit-229/home/108104630,REALTRACS,2175365,N,Y,36.124674,-86.805364
PAST SALE,April-30-2021,Condo/Co-op,2600 Hillsboro Pike #147,Nashville,TN,37212,440000,2,2.0,The Enclave At Hillsboro V,1880,1742,2006,,234,450,Sold,,,http://www.redfin.com/TN/Nashville/2600-Hillsboro-Pike-37212/unit-147/home/60650192,REALTRACS,2237653,N,Y,36.124674,-86.805364
PAST SALE,December-16-2020,Townhouse,143 Stonecrest Dr,Nashville,TN,37209,325000,2,3.0,Stoneridge Townhomes,1984,871,2007,,164,125,Sold,,,http://www.redfin.com/TN/Nashville/143-Stonecrest-Dr-37209/home/108116861,REALTRACS,2206436,N,Y,36.112022,-86.917858
PAST SALE,March-24-2021,Single Family Residential,1037 Woodbury Falls Dr,Nashville,TN,37221,306200,3,3.0,Woodbury,1984,871,2007,,154,150,Sold,,,http://www.redfin.com/TN/Nashville/1037-Woodbury-Falls-Dr-37221/home/108016568,REALTRACS,2228370,N,Y,36.0875264,-86.9215161
PAST SALE,April-22-2021,Townhouse,1125 Woodbury Falls Ct,Nashville,TN,37221,317500,3,3.0,Woodbury,1984,871,2012,,160,150,Sold,,,http://www.redfin.com/TN/Nashville/1125-Woodbury-Falls-Ct-37221/home/68707860,REALTRACS,2235272,N,Y,36.0893294,-86.9218045
PAST SALE,March-4-2021,Single Family Residential,685 Belgium Dr,Hermitage,TN,37076,309000,3,2.0,Greer Meadows At Cedar Cre,1875,4356,2004,,165,18,Sold,,,http://www.redfin.com/TN/Hermitage/685-Belgium-Dr-37076/home/108107197,REALTRACS,2224832,N,Y,36.2040595,-86.5972954
PAST SALE,November-23-2020,Single Family Residential,563 Tulip Grove Rd,Hermitage,TN,37076,364900,3,2.5,The Cove at Tulip Grove,1931,871,2020,,189,,Sold,,,http://www.redfin.com/TN/Hermitage/563-Tulip-Grove-Rd-37076/home/173772728,REALTRACS,2209059,N,Y,36.2094092,-86.5894879
PAST SALE,March-11-2021,Single Family Residential,181 Stonecrest Dr,Nashville,TN,37209,420000,3,3.5,The Highlands At Stoneridg,1994,871,2019,,211,120,Sold,,,http://www.redfin.com/TN/Nashville/181-Stonecrest-Dr-37209/unit-41/home/144499140,REALTRACS,2215176,N,Y,36.11074,-86.917182
PAST SALE,December-11-2020,Townhouse,320 Old Hickory Blvd #1307,Nashville,TN,37221,315000,2,2.5,Eagle Ridge At The Reserve,1979,871,2002,,159,267,Sold,,,http://www.redfin.com/TN/Nashville/320-Old-Hickory-Blvd-37221/unit-1307/home/108106463,REALTRACS,2204706,N,Y,36.0885646,-86.9191408
PAST SALE,January-4-2021,Single Family Residential,2219 Dale View Dr,Antioch,TN,37013,305000,3,2.5,Ridgeview,1920,4356,2018,,159,37,Sold,,,http://www.redfin.com/TN/Antioch/2219-Dale-View-Dr-37013/home/107991686,REALTRACS,2212228,N,Y,36.0490819,-86.6422644
PAST SALE,November-13-2020,Townhouse,106 Nashboro Grns,Nashville,TN,37217,219900,3,2.5,Nashboro Village Tract 18,1780,871,2001,,124,125,Sold,,,http://www.redfin.com/TN/Nashville/106-Nashboro-Blvd-37217/home/60661293,REALTRACS,2181621,N,Y,36.092351,-86.641546
PAST SALE,December-15-2020,Condo/Co-op,615B Hamilton Ave,Nashville,TN,37203,510000,3,2.5,Wedgewood Houston,1920,1306,2013,,266,,Sold,,,http://www.redfin.com/TN/Nashville/615B-Hamilton-Ave-37203/home/103353331,REALTRACS,2196467,N,Y,36.1384913,-86.7711174
PAST SALE,February-26-2021,Condo/Co-op,1619 Marshall Hollow Dr,Nashville,TN,37203,565000,3,3.5,Southgate Station,1916,871,2018,,295,160,Sold,,,http://www.redfin.com/TN/Nashville/1619-Marshall-Hollow-Dr-37203/home/147324153,REALTRACS,2212939,N,Y,36.1367556,-86.7672032
PAST SALE,December-9-2020,Townhouse,605B Hamilton Ave,Nashville,TN,37203,619900,3,3.0,Hamilton & Martin Townhome,1957,871,2020,,317,275,Sold,,,http://www.redfin.com/TN/Nashville/605-Hamilton-Ave-37203/unit-B/home/170542029,REALTRACS,2137529,N,Y,36.138524,-86.770502
PAST SALE,January-16-2021,Townhouse,502 Huntington Ridge Dr,Nashville,TN,37211,264900,3,2.5,Huntington Ridge,1865,1306,1998,,142,206,Sold,,,http://www.redfin.com/TN/Nashville/502-Huntington-Ridge-Dr-37211/home/108111468,REALTRACS,2206386,N,Y,36.0503471,-86.7267563
PAST SALE,January-29-2021,Single Family Residential,5541 Prada Dr,Brentwood,TN,37027,300000,3,2.5,High Point,,871,2015,,,,Sold,,,http://www.redfin.com/TN/Brentwood/5541-Prada-Dr-37027/home/60642468,REALTRACS,2216280,N,Y,36.0031163,-86.6939278
PAST SALE,December-9-2020,Townhouse,1313 Concord Mill Ln,Nashville,TN,37211,289999,3,3.5,Lenox Village,1924,1742,2006,,151,150,Sold,,,http://www.redfin.com/TN/Nashville/1313-Concord-Mill-Ln-37211/home/108106039,REALTRACS,2201926,N,Y,36.0189916,-86.7038764
PAST SALE,April-12-2021,Townhouse,5522 Prada Dr #62,Brentwood,TN,37027,342700,3,3.5,High Point,1919,871,2013,,179,154,Sold,,,http://www.redfin.com/TN/Brentwood/5522-Prada-Dr-37027/unit-62/home/147947530,REALTRACS,2233035,N,Y,36.002167,-86.6934982
PAST SALE,January-4-2021,Single Family Residential,225 Muir Ave,Nolensville,TN,37135,328175,3,3.5,Burkitt Commons,1959,871,2020,,168,165,Sold,,,http://www.redfin.com/TN/NOLENSVILLE/225-MUIR-AVE-37135/home/170543048,REALTRACS,2210550,N,Y,35.989918,-86.680766
PAST SALE,November-13-2020,Townhouse,1515 Winding Creek Dr,Nolensville,TN,37135,373900,3,2.5,Carothers Crossing,1877,3920,2017,,199,146,Sold,,,http://www.redfin.com/TN/NOLENSVILLE/1515-WINDING-CREEK-DR-37135/home/144478209,REALTRACS,2190403,N,Y,35.983945,-86.620226
PAST SALE,November-17-2020,Single Family Residential,2227 Dale View Dr,Antioch,TN,37013,286000,3,2.5,Ridgeview,1920,4356,2017,,149,52,Sold,,,http://www.redfin.com/TN/Antioch/2227-Dale-View-Dr-37013/home/108108295,REALTRACS,2188013,N,Y,36.0488674,-86.6418019
PAST SALE,December-4-2020,Townhouse,5538 Cedar Ash Xing,Antioch,TN,37013,193000,3,2.5,Provincetown,1776,871,2006,,109,150,Sold,,,http://www.redfin.com/TN/Antioch/5538-Cedar-Ash-Xing-37013/home/108059214,REALTRACS,2202336,N,Y,36.04212,-86.6277099
PAST SALE,March-30-2021,Single Family Residential,155 Burkitt Commons Ave,Nolensville,TN,37135,348325,3,3.5,Burkitt Commons,1959,1306,2021,,178,150,Sold,,,http://www.redfin.com/TN/Nolensville/155-Burkitt-Commons-Ave-37135/home/170543042,REALTRACS,2230831,N,Y,35.99018,-86.681029
PAST SALE,March-5-2021,Single Family Residential,153 Burkitt Commons Ave,Nolensville,TN,37135,347100,3,3.5,Burkitt Commons,1959,1742,2020,,177,150,Sold,,,http://www.redfin.com/TN/Nolensville/153-Burkitt-Commons-Ave-37135/home/170543043,REALTRACS,2197462,N,Y,35.990201,-86.680967
PAST SALE,December-23-2020,Townhouse,602 Thetford Aly,Brentwood,TN,37027,328275,2,3.5,Southpoint,1901,1306,2020,,173,150,Sold,,,http://www.redfin.com/TN/Brentwood/602-Thetford-ALY-37027/home/172641589,REALTRACS,2194972,N,Y,35.99612208,-86.68395185
PAST SALE,February-10-2021,Townhouse,641 Old Hickory Blvd #142,Brentwood,TN,37027,347000,3,2.5,Townhomes Of Fredericksbur,1762,1306,1998,,197,252,Sold,,,http://www.redfin.com/TN/Brentwood/641-Old-Hickory-Blvd-37027/unit-142/home/108092957,REALTRACS,2218441,N,Y,36.038538,-86.764756
PAST SALE,December-1-2020,Single Family Residential,700 Arbor Trace Cir,Nashville,TN,37207,415000,4,3.5,Magnolia East,1847,1306,2017,,225,85,Sold,,,http://www.redfin.com/TN/Nashville/700-Arbor-Trace-Cir-37207/home/112483483,REALTRACS,2200209,N,Y,36.225018,-86.757154
PAST SALE,December-29-2020,Single Family Residential,1702 Simpkins St,Nashville,TN,37208,384500,4,3.0,Homes At 1700 & 1702 Simpk,1872,871,2018,,205,,Sold,,,http://www.redfin.com/TN/Nashville/1702-Simpkins-St-37208/home/108020378,REALTRACS,2204139,N,Y,36.1858197,-86.8125606
PAST SALE,March-4-2021,Single Family Residential,1743 16th Ave N,Nashville,TN,37208,400000,3,2.5,D T McGavock & Others,1886,4356,2020,,212,,Sold,,,http://www.redfin.com/TN/Nashville/1743-16th-Ave-N-37208/home/108032983,REALTRACS,2207834,N,Y,36.1790076,-86.8090895
PAST SALE,March-22-2021,Condo/Co-op,802A 28th Ave N,Nashville,TN,37208,475000,3,3.0,City Heights,1861,871,2020,,255,,Sold,,,http://www.redfin.com/TN/Nashville/802-28th-Ave-N-37208/home/108034898,REALTRACS,2219046,N,Y,36.1604551,-86.8187252
PAST SALE,December-29-2020,Townhouse,2410 Meharry Blvd #12,Nashville,TN,37208,394000,3,3.5,Heritage At Jefferson Town,1750,871,2019,,225,100,Sold,,,http://www.redfin.com/TN/Nashville/2410-Meharry-Blvd-37208/unit-12/home/148399055,REALTRACS,2208346,N,Y,36.1680814,-86.8131883
PAST SALE,April-23-2021,Condo/Co-op,205 31st Ave N #113,Nashville,TN,37203,515000,2,2.0,Midtown Lofts,1941,2613,2006,,265,546,Sold,,,http://www.redfin.com/TN/Nashville/205-31st-Ave-N-37203/unit-113/home/60658577,REALTRACS,2224207,N,Y,36.1448856,-86.8167778
PAST SALE,May-6-2021,Townhouse,133 Hermitage Woods Dr,Hermitage,TN,37076,230000,4,2.5,Hermitage Woods,1912,871,1974,,120,221,Sold,,,http://www.redfin.com/TN/Hermitage/133-Hermitage-Woods-Dr-37076/home/60643872,REALTRACS,2241932,N,Y,36.17939,-86.604246
PAST SALE,December-29-2020,Single Family Residential,900 20th Ave S #801,Nashville,TN,37212,900000,2,2.0,The Adelicia,1829,3484,2007,,492,1005,Sold,,,http://www.redfin.com/TN/Nashville/900-20th-Ave-S-37212/unit-801/home/108136598,REALTRACS,2211702,N,Y,36.1485354,-86.7973117
PAST SALE,November-23-2020,Single Family Residential,600 12th Ave S #2011,Nashville,TN,37203,1775000,2,2.5,Icon In The Gulch,1928,1742,2008,,921,874,Sold,,,http://www.redfin.com/TN/Nashville/600-12th-Ave-S-37203/unit-2011/home/68703115,REALTRACS,2202083,N,Y,36.1516851,-86.7839988
PAST SALE,April-1-2021,Single Family Residential,1015 12th Ave S Unit A,Nashville,TN,37203,965000,4,3.5,Gulch View,1984,871,2016,,486,,Sold,,,http://www.redfin.com/TN/Nashville/1015-12th-Ave-S-37203/unit-A/home/112482157,REALTRACS,2241066,N,Y,36.1453325,-86.7865825
PAST SALE,May-6-2021,Single Family Residential,1212 Laurel St #1401 #1401,Nashville,TN,37203,1690000,2,2.5,Twelve Twelve,1864,2178,2014,,907,776,Sold,,,http://www.redfin.com/TN/Nashville/1212-Laurel-St-37203/unit-1401/home/102803230,REALTRACS,2230606,N,Y,36.1535143,-86.786437
PAST SALE,May-6-2021,Condo/Co-op,900 19th Ave S #1201,Nashville,TN,37212,630000,3,2.5,University Square,2000,1742,1986,,315,1050,Sold,,,http://www.redfin.com/TN/Nashville/900-19th-Ave-S-37212/unit-1201/home/87817384,REALTRACS,2249126,N,Y,36.1480136,-86.7957078
PAST SALE,December-31-2020,Single Family Residential,412 Garfield St,Nashville,TN,37208,685000,3,3.5,The Brownstones At 5 & G,1871,871,2012,,366,165,Sold,,,http://www.redfin.com/TN/Nashville/412-Garfield-St-37208/home/68706389,REALTRACS,2199627,N,Y,36.1825602,-86.7921422
PAST SALE,April-16-2021,Condo/Co-op,1708B 7th Ave N,Nashville,TN,37208,605000,3,3.0,1708 7th Avenue North Town,1936,871,2014,,313,,Sold,,,http://www.redfin.com/TN/Nashville/1708B-7th-Ave-N-37208/home/147977940,REALTRACS,2234728,N,Y,36.1819027,-86.7952252
PAST SALE,April-15-2021,Single Family Residential,3204 Go Run,Nashville,TN,37206,433000,3,2.5,East Greenway Park,1820,,2020,,238,145,Sold,,,http://www.redfin.com/TN/Nashville/Unknown-37206/home/112484083,REALTRACS,2149528,N,Y,36.184878,-86.710209
PAST SALE,March-19-2021,Condo/Co-op,395 Monroe St,Nashville,TN,37208,588000,3,3.0,4th & Monroe,1812,871,2013,,325,270,Sold,,,http://www.redfin.com/TN/Nashville/395-Monroe-St-37208/home/60652093,REALTRACS,2219842,N,Y,36.176212,-86.787736
PAST SALE,December-7-2020,Townhouse,129 Holly Frst,Nashville,TN,37221,325000,3,2.5,Coronada,1752,4356,1975,,186,330,Sold,,,http://www.redfin.com/TN/Nashville/129-Holly-Frst-37221/home/108054196,REALTRACS,2198648,N,Y,36.073793,-86.9145881
PAST SALE,January-14-2021,Condo/Co-op,2702 Delaware Ave,Nashville,TN,37209,625000,4,4.0,Axis27,1997,871,2020,,313,175,Sold,,,http://www.redfin.com/TN/Nashville/2702-Delaware-Ave-37209/home/172046401,REALTRACS,2158531,N,Y,36.156378,-86.81717
PAST SALE,December-30-2020,Townhouse,403 Plantation Ct,Nashville,TN,37221,278000,3,2.5,River Plantation,1794,871,1972,,155,258,Sold,,,http://www.redfin.com/TN/Nashville/403-Plantation-Ct-37221/home/60663193,REALTRACS,2195533,N,Y,36.0736513,-86.9492463
PAST SALE,March-5-2021,Single Family Residential,1087 General George Patton Rd,Nashville,TN,37221,275000,3,2.0,River Plantation,1804,1742,1982,,152,217,Sold,,,http://www.redfin.com/TN/Nashville/1087-General-George-Patton-Rd-37221/unit-R/home/108097439,REALTRACS,2233446,N,Y,36.067783,-86.952857
PAST SALE,December-18-2020,Townhouse,7252 Highway 70 S #405,Nashville,TN,37221,310000,3,3.0,Bellevue Commons,1902,871,2001,,163,81,Sold,,,http://www.redfin.com/TN/Nashville/7252-Hwy-70-S-37221/unit-405/home/108046238,REALTRACS,2202767,N,Y,36.074993,-86.9311199
PAST SALE,November-23-2020,Townhouse,7252 Highway 70 S #105,Nashville,TN,37221,299000,2,3.0,Bellevue Commons,1902,871,2000,,157,81,Sold,,,http://www.redfin.com/TN/Nashville/7252-Hwy-70-S-37221/unit-105/home/108023044,REALTRACS,2187980,N,Y,36.074993,-86.9311199
PAST SALE,November-16-2020,Single Family Residential,7382 Old Harding Pike,Nashville,TN,37221,353000,3,2.5,Bellevue Station,1790,1306,2016,,197,100,Sold,,,http://www.redfin.com/TN/Nashville/7382-Old-Harding-Pike-37221/home/103929141,REALTRACS,2186844,N,Y,36.0653192,-86.9384328
PAST SALE,April-29-2021,Townhouse,9102 Sawyer Brown Rd,Nashville,TN,37221,384900,3,2.5,River Plantation,1824,871,1991,,211,225,Sold,,,http://www.redfin.com/TN/Nashville/9102-Sawyer-Brown-Rd-37221/home/108069803,REALTRACS,2238041,N,Y,36.065424,-86.945092
PAST SALE,April-29-2021,Townhouse,725 Harpeth Trace Dr,Nashville,TN,37221,325000,2,2.5,Harpeth Knoll,1760,871,1987,,185,285,Sold,,,http://www.redfin.com/TN/Nashville/725-Harpeth-Trace-Dr-37221/home/108097661,REALTRACS,2237736,N,Y,36.075958,-86.893451
PAST SALE,May-3-2021,Single Family Residential,7392 Old Harding Pike,Nashville,TN,37221,372000,3,2.5,Bellevue Station,1898,871,2016,,196,105,Sold,,,http://www.redfin.com/TN/Nashville/7392-Old-Harding-Pike-37221/home/103929401,REALTRACS,2227163,N,Y,36.0652355,-86.9389277
PAST SALE,January-29-2021,Condo/Co-op,208B Myrtle St,Nashville,TN,37206,515000,3,3.5,208 Myrtle Street Townhome,1936,435,2018,,266,100,Sold,,,http://www.redfin.com/TN/Nashville/208B-Myrtle-St-37206/home/172482072,REALTRACS,2211464,N,Y,36.1793701,-86.7569402
PAST SALE,March-31-2021,Condo/Co-op,8300 Sawyer Brown Rd Unit H301,Nashville,TN,37221,255000,3,2.0,River Plantation,1958,1742,1974,,130,270,Sold,,,http://www.redfin.com/TN/Nashville/8300-Sawyer-Brown-Rd-37221/unit-H301/home/108129343,REALTRACS,2221234,N,Y,36.073231,-86.945832
PAST SALE,December-3-2020,Townhouse,7252 Highway 70 S #1105,Nashville,TN,37221,307500,2,3.0,Bellevue Commons,1902,871,2002,,162,81,Sold,,,http://www.redfin.com/TN/Nashville/7252-Hwy-70-S-37221/unit-1105/home/94450709,REALTRACS,2197982,N,Y,36.074993,-86.9311199
PAST SALE,December-12-2020,Townhouse,7252 Highway 70 S #1202,Nashville,TN,37221,272000,2,3.0,Bellevue Commons,1902,871,2002,,143,81,Sold,,,http://www.redfin.com/TN/Nashville/7252-Hwy-70-S-37221/unit-1202/home/108136277,REALTRACS,2190882,N,Y,36.074993,-86.9311199
PAST SALE,March-5-2021,Townhouse,7252 Highway 70 S #1408,Nashville,TN,37221,294400,2,3.0,Bellevue Commons,1902,871,2001,,155,81,Sold,,,http://www.redfin.com/TN/Nashville/7252-Hwy-70-S-37221/unit-1408/home/108100606,REALTRACS,2223531,N,Y,36.074993,-86.9311199
PAST SALE,January-29-2021,Single Family Residential,901 Curdwood Blvd,Nashville,TN,37216,424900,3,3.0,Curdwood Park,1879,435,2021,,226,175,Sold,,,http://www.redfin.com/TN/Nashville/901-Curdwood-Blvd-37216/home/174195866,REALTRACS,2220470,N,Y,36.221684,-86.733925
PAST SALE,February-26-2021,Single Family Residential,2425A Inga St,Nashville,TN,37206,377500,2,2.5,East Nashville,1752,1306,2016,,215,,Sold,,,http://www.redfin.com/TN/Nashville/2425A-Inga-St-37206/home/173597256,REALTRACS,2223972,N,Y,36.1966502,-86.7509394
PAST SALE,,Condo/Co-op,1145 Cahal Ave Unit A,Nashville,TN,37206,455000,3,3.0,,1883,,2015,,242,,,,,http://www.redfin.com/TN/Nashville/1145-Cahal-Ave-37206/unit-A/home/104501058,,,N,Y,36.196573,-86.738204
PAST SALE,,Multi-Family (2-4 Unit),1401 Berry St,Old Hickory,TN,37138,247500,6,2.0,,1920,4356,1929,,129,,,,,http://www.redfin.com/TN/Old-Hickory/1401-Berry-St-37138/home/107994252,,,N,Y,36.2563106,-86.6501079
PAST SALE,March-12-2021,Condo/Co-op,327 Duke St Unit A,Nashville,TN,37207,404000,3,2.5,Homes At 327 Duke Street,1972,1306,2018,,205,,Sold,,,http://www.redfin.com/TN/Nashville/327-Duke-St-37207/unit-A/home/144497363,REALTRACS,2228490,N,Y,36.2072247,-86.7607475
PAST SALE,December-31-2020,Condo/Co-op,1125 Harmony Way,Nashville,TN,37207,437000,3,3.5,Lyric at Cleveland Park,1913,871,2020,,228,150,Sold,,,http://www.redfin.com/TN/Nashville/Unknown-37207/home/174105414,REALTRACS,2217140,N,Y,36.201129,-86.75432
PAST SALE,December-31-2020,Condo/Co-op,1123 Harmony Way,Nashville,TN,37207,449900,3,3.5,Lyric at Cleveland Park,1913,871,2020,,235,150,Sold,,,http://www.redfin.com/TN/Nashville/Unknown-37207/unit-39/home/174105418,REALTRACS,2217141,N,Y,36.201139,-86.75439
PAST SALE,March-10-2021,Single Family Residential,1119 Harmony Way,Nashville,TN,37207,469900,4,3.5,Lyric at Cleveland Park,1913,871,2021,,246,150,Sold,,,http://www.redfin.com/TN/Nashville/Unknown-37207/home/173532483,REALTRACS,2229664,N,Y,36.201361,-86.754494
PAST SALE,March-30-2021,Condo/Co-op,2085 Oakwood Ave Unit 13,Nashville,TN,37207,370000,3,3.0,Oakwood Townhomes,1860,1742,2020,,199,150,Sold,,,http://www.redfin.com/TN/Nashville/2085-Oakwood-Ave-37207/home/173370698,REALTRACS,2218029,N,Y,36.209284,-86.752564
PAST SALE,May-5-2021,Condo/Co-op,2103 Oakwood Ave Unit 8,Nashville,TN,37207,357400,2,2.5,Oakwood Townhomes,1800,1306,2020,,199,150,Sold,,,http://www.redfin.com/TN/Nashville/2103-Oakwood-Ave-37207/home/174052257,REALTRACS,2216537,N,Y,36.209504,-86.752822
PAST SALE,January-15-2021,Single Family Residential,561 Tulip Grove Rd,Hermitage,TN,37076,374900,3,2.5,The Cove at Tulip Grove,1931,871,2020,,194,70,Sold,,,http://www.redfin.com/TN/Hermitage/561-Tulip-Grove-Rd-37076/home/169449893,REALTRACS,2209032,N,Y,36.2098395,-86.5889529
PAST SALE,April-9-2021,Townhouse,726 Blue Brick Pl,Hermitage,TN,37076,209000,3,2.0,Fox Run,1895,1742,1984,,110,295,Sold,,,http://www.redfin.com/TN/Hermitage/726-Blue-Brick-Pl-37076/home/108030992,REALTRACS,2218894,N,Y,36.222453,-86.595048
PAST SALE,April-5-2021,Condo/Co-op,826 Old Coach Ct,Hermitage,TN,37076,220000,3,2.0,Fox Run,1910,1306,1973,,115,295,Sold,,,http://www.redfin.com/TN/Hermitage/826-Old-Coach-Ct-37076/home/108031202,REALTRACS,2230776,N,Y,36.223336,-86.59486
PAST SALE,April-23-2021,Single Family Residential,565 Tulip Grove Rd,Hermitage,TN,37076,390000,3,2.5,The Cove at Tulip Grove,1931,871,2021,,202,70,Sold,,,http://www.redfin.com/TN/Hermitage/565-Tulip-Grove-Rd-37076/home/172775815,REALTRACS,2209034,N,Y,36.2094519,-86.5891053
PAST SALE,April-27-2021,Single Family Residential,654 Belgium Dr,Hermitage,TN,37076,315000,3,2.5,Greer Meadows At Cedar Cre,1948,4356,2005,,162,16,Sold,,,http://www.redfin.com/TN/Hermitage/654-Belgium-Dr-37076/home/107989145,REALTRACS,2239975,N,Y,36.2027042,-86.5972954
PAST SALE,February-26-2021,Single Family Residential,2303 Northview Ave,Nashville,TN,37216,450000,3,2.5,East Nashville,1828,1306,2016,,246,,Sold,,,http://www.redfin.com/TN/Nashville/2303-Northview-Ave-37216/home/109603524,REALTRACS,2220206,N,Y,36.2010411,-86.7348979
PAST SALE,November-17-2020,Condo/Co-op,6216A Louisiana Ave,Nashville,TN,37209,450000,3,2.5,6216 Louisiana Homes,1910,871,2016,,236,,Sold,,,http://www.redfin.com/TN/Nashville/6216A-Louisiana-Ave-37209/home/172657306,REALTRACS,2190553,N,Y,36.1658855,-86.8645329
PAST SALE,January-8-2021,Single Family Residential,810 Morrow Rd,Nashville,TN,37209,480000,3,2.5,Cottages At 5319 Illinois,1829,1306,2018,,262,,Sold,,,http://www.redfin.com/TN/Nashville/810-Morrow-Rd-37209/home/148399045,REALTRACS,2207509,N,Y,36.1571061,-86.8531335
PAST SALE,November-19-2020,Single Family Residential,5003B Michigan Ave,Nashville,TN,37209,520000,4,3.0,The Nations/West Nashville,1920,3920,2015,,271,,Sold,,,http://www.redfin.com/TN/Nashville/5003B-Michigan-Ave-37209/home/101699304,REALTRACS,2197865,N,Y,36.1584378,-86.8479888
PAST SALE,March-8-2021,Single Family Residential,510B Eastboro Dr,Nashville,TN,37209,440000,3,3.0,510A-510B Eastboro Drive T,1920,871,2017,,229,,Sold,,,http://www.redfin.com/TN/Nashville/510B-Eastboro-Dr-37209/home/172305760,REALTRACS,2215060,N,Y,36.1516411,-86.8675698
PAST SALE,February-26-2021,Condo/Co-op,5612 Burgess Ave,Nashville,TN,37209,479900,3,3.5,Catalyst Nashville,1866,871,2016,,257,115,Sold,,,http://www.redfin.com/TN/Nashville/5612-Burgess-Ave-37209/unit-B/home/86212026,REALTRACS,2205329,N,Y,36.1452334,-86.8589219
PAST SALE,April-15-2021,Single Family Residential,5207B Louisiana Ave,Nashville,TN,37209,545000,3,2.5,5207 Louisana Drive,1963,1306,2016,,278,,Sold,,,http://www.redfin.com/TN/Nashville/5207B-Louisiana-Ave-37209/home/172306262,REALTRACS,2235324,N,Y,36.1617049,-86.8511829
PAST SALE,April-20-2021,Single Family Residential,5809 Morrow Rd Unit D,Nashville,TN,37209,485000,3,3.0,The Nations,1920,871,2017,,253,,Sold,,,http://www.redfin.com/TN/Nashville/5809-Morrow-Rd-37209/unit-D/home/144499752,REALTRACS,2246163,N,Y,36.1610354,-86.8594588
PAST SALE,March-31-2021,Single Family Residential,223 Sterling Point Cir,Nashville,TN,37209,450680,3,3.5,Charlotte Park,1965,871,2021,,229,165,Sold,,,http://www.redfin.com/TN/NASHVILLE/223-STERLING-POINT-CIR-37209/home/148402050,REALTRACS,2183144,N,Y,36.15785,-86.86439
PAST SALE,April-29-2021,Single Family Residential,233 Sterling Point Cir,Nashville,TN,37209,443380,3,3.5,Charlotte Park,1990,871,2021,,223,165,Sold,,,http://www.redfin.com/TN/Nashville/Sterling-Point-Cir-37209/home/148402055,REALTRACS,2183140,N,Y,36.158214,-86.864325
PAST SALE,April-29-2021,Condo/Co-op,4402 Delaware Ave,Nashville,TN,37209,460000,3,2.5,4404 Delaware Avenue Townh,1933,871,2013,,238,,Sold,,,http://www.redfin.com/TN/Nashville/4402-Delaware-Ave-37209/home/103999109,REALTRACS,2238049,N,Y,36.1548298,-86.8401732
PAST SALE,May-6-2021,Single Family Residential,227 Oceola Ave #7,Nashville,TN,37209,495000,3,3.5,Alabaster West Townhomes,1772,871,2019,,279,150,Sold,,,http://www.redfin.com/TN/Nashville/227-Oceola-Ave-37209/unit-7/home/144500034,REALTRACS,2239175,N,Y,36.147623,-86.8601319
PAST SALE,,Single Family Residential,1024 Mulberry Way,Nashville,TN,37207,220000,3,2.0,,1782,4356,1990,,123,,,,,http://www.redfin.com/TN/Nashville/1024-Mulberry-Way-37207/home/108118962,,,N,Y,36.2533479,-86.7658528
PAST SALE,December-1-2020,Single Family Residential,2136 14th Ave N,Nashville,TN,37208,399999,3,2.5,2136-2138 14th Avenue Nort,1750,871,2017,,229,,Sold,,,http://www.redfin.com/TN/Nashville/2136-14th-Ave-N-37208/home/144498012,REALTRACS,2179464,N,Y,36.187837,-86.809985
PAST SALE,February-4-2021,Single Family Residential,4900 Tennessee Ave,Nashville,TN,37209,479000,3,3.0,Nations Park,1896,1742,2015,,253,110,Sold,,,http://www.redfin.com/TN/Nashville/4900-Tennessee-Ave-37209/home/77446146,REALTRACS,2217290,N,Y,36.1612506,-86.8466408
PAST SALE,March-4-2021,Condo/Co-op,4707B Kentucky Ave,Nashville,TN,37209,510000,3,3.0,The Nations,1876,871,2013,,272,,Sold,,,http://www.redfin.com/TN/Nashville/4707B-Kentucky-Ave-37209/home/145206370,REALTRACS,2218764,N,Y,36.1597406,-86.8446364
PAST SALE,December-16-2020,Condo/Co-op,5616 Burgess Ave,Nashville,TN,37209,455000,3,3.5,Catalyst Nashville,1840,871,2017,,247,115,Sold,,,http://www.redfin.com/TN/Nashville/5616-Burgess-Ave-37209/home/106047201,REALTRACS,2202462,N,Y,36.1452468,-86.8590228
PAST SALE,February-25-2021,Townhouse,4400 Belmont Park Ter #200,Nashville,TN,37215,527000,3,2.5,Arden Place,1936,1306,1977,,272,415,Sold,,,http://www.redfin.com/TN/Nashville/4400-Belmont-Park-Ter-37215/unit-200/home/108094710,REALTRACS,2227103,N,Y,36.0991081,-86.8039289
PAST SALE,February-1-2021,Single Family Residential,219 Sterling Point Cir,Nashville,TN,37209,440000,3,3.5,Charlotte Park,1994,871,2020,,221,165,Sold,,,http://www.redfin.com/TN/Nashville/Sterling-Point-Cir-37209/home/148402048,REALTRACS,2177103,N,Y,36.157729,-86.86421
PAST SALE,,Condo/Co-op,227 Oceola Ave #5,Nashville,TN,37209,395000,3,3.5,,1799,,2020,,220,,,,,http://www.redfin.com/TN/Nashville/227-Oceola-Ave-37209/unit-5/home/144500036,,,N,Y,36.147623,-86.8601319
PAST SALE,April-15-2021,Condo/Co-op,622 Annex Ave Unit A,Nashville,TN,37209,451500,3,2.5,Charlotte Park,1970,871,2016,,229,,Sold,,,http://www.redfin.com/TN/Nashville/622-Annex-Ave-37209/unit-A/home/112379404,REALTRACS,2233293,N,Y,36.1603414,-86.8767401
